Nom Commune;Latitude;Longitude
Saint-Pol-sur-Ternoise;50.38725060194668; 2.355144497748057
Marle;49.75093181767879; 3.767840653650705
Mont-de-Marsan;43.88448005033058; -0.4917613073586717
Frouard;48.77014418439359; 6.1355970815571625
Tournan-en-Brie;48.74875661319905; 2.766858772585646
Tivernon;48.161332504859026; 1.9214206297467131
Valdahon;47.144362289277595; 6.324657875567107
Tarnos;43.53449637525417; -1.4951114940533021
Ronchamp;47.69555917291448; 6.627179540964065
Bollène;44.28282918939316; 4.7371970493304065
Lasalle;44.04277039955114; 3.858839960751412
Chalon-sur-Saône;46.80664006475281; 4.85654427688419
Saint-Maurice-Navacelles;43.856259332133874; 3.558729462507184
Rebeuville;48.33815717142507; 5.695766000079091
Fougerolles-Saint-Valbert;47.9325565277143; 6.439299439023475
Lacaune;43.710081484033545; 2.6819257907487937
Caussade;44.16269639150717; 1.5312649972958547
Montauban;44.03848972838545; 1.3657399343825833
Pusy-et-Épenoux;47.65284669870939; 6.163635916736271
Guyancourt;48.79058708786603; 2.0610753203559637
Paris;48.87555978288252; 2.376022335108736
Bogny-sur-Meuse;49.860182640844926; 4.748857960390456
Gouville-sur-Mer;49.09363967777227; -1.5174255981646452
Vitré;48.12326184822418; -1.1829874099568047
Rives;45.36439716331118; 5.490993905169459
Vinay;45.207685246840406; 5.395849794394942
Voreppe;45.29300324897751; 5.627956938297421
Dunkerque;51.029131072252866; 2.382811081520166
Quevilloncourt;48.47552434474706; 6.097324200562545
Toulon;43.131414922254024; 5.964196383975114
Auch;43.65150907301879; 0.6051514212821419
Pamiers;43.1201147771889; 1.640827710190154
Coupvray;48.880832095668154; 2.7862348048599843
Reims;49.217411776689815; 4.018169818768357
Oiry;49.00875531613748; 4.034745514780946
Clermont-Ferrand;45.810470304410664; 3.1024372265973086
Saint-Avertin;47.34684672166259; 0.7288201023416574
Rousset;44.46956288556118; 6.267906073232051
Sisteron;44.213464861042056; 5.920944133790914
Saint-Marcellin;45.14558295671267; 5.308818246205432
Dégagnac;44.652219386108065; 1.3534077202802457
Nancy;48.6915571155865; 6.193935552959386
Poisy;45.93590159029264; 6.065949906780153
Aïcirits-Camou-Suhast;43.344466215126054; -1.0194866276863634
Perquie;43.88208416416893; -0.2643563112766206
Lille;50.62720708978758; 3.116887646439309
Rignac;44.793354315594605; 1.6994248466669246
Arvieu;44.18447147396814; 2.6653433248197334
Chalais;45.27480825356522; 0.046872355510781276
Culhat;45.86349526837398; 3.35673063806001
Ruffec;46.02632373859739; 0.18203689357855357
Châteaubernard;45.67796028988974; -0.32149903694479565
Bessey;45.38358354454471; 4.702387981490556
Annonay;45.2652172864152; 4.669042165803591
Beaurepaire;45.32583273890496; 5.054333348730885
Auzances;46.03344892905296; 2.5002125135833855
Bonnat;46.316439911523986; 1.8948572591272845
Carhaix-Plouguer;48.284618172002105; -3.55570714541965
Ouessant;48.45986243926684; -5.099160023736857
Valcanville;49.64936811176878; -1.341143883588468
Villaines-la-Juhel;48.33925318559528; -0.28062763928404527
La Chaussée-sur-Marne;48.83791850836696; 4.512079678387251
Haussimont;48.769089307739904; 4.201567940675078
Envermeu;49.90943932427456; 1.2557096013816156
Pau;43.29242617440309; -0.3606267816105963
Arreau;42.89920804192469; 0.3650541719929356
Montluçon;46.32079725991269; 2.604179001771753
Veuzain-sur-Loire;47.49331055147351; 1.1775499255629034
Saudrupt;48.704611061014965; 5.070678730625866
Ax-les-Thermes;42.71883665182878; 1.8413106874528926
Fontenay-sous-Bois;48.85648990592408; 2.4952927410542562
Meaux;48.94923655462478; 2.9282422147882565
Ussel;45.56425282390539; 2.312696948683807
Oyonnax;46.262004586303036; 5.648659081836721
Contault;48.91289381241022; 4.8053960380257
Erquy;48.60047017663826; -2.451826753390717
Saint-Lormel;48.52637602818268; -2.2325440172780597
Plourhan;48.6328519203846; -2.8927110494524944
Plusquellec;48.39482532020609; -3.4476168229965216
Béziers;43.32988214959327; 3.230015284139735
Pouilly-sur-Saône;47.01028076539167; 5.1193780403234745
Poiseul-la-Grange;47.58328653417952; 4.7920146895009
Longvic;47.280901189753926; 5.039199871064217
Champvans;47.098798395368654; 5.445444800273154
Ancenis-Saint-Géréon;47.37754809625476; -1.1807003538793848
La Baule-Escoublac;47.2891167555517; -2.3872050047581848
Carquefou;47.28499248094633; -1.478212177096699
Machecoul-Saint-Même;46.95812519421811; -1.833272072383045
Romorantin-Lanthenay;47.339601471298906; 1.7575668931468038
Sète;43.41331253830162; 3.694855162190752
Montbard;47.62092738419553; 4.323145398250631
Ploubezre;48.71871222135289; -3.4544631530190104
Bordeaux;44.83992924279312; -0.5772579316626582
Le Bouscat;44.869267231927715; -0.6127431386183488
Pontchâteau;47.43340915453851; -2.0987165758659807
Loriol-sur-Drôme;44.75762541252781; 4.819802876951822
Fontainebleau;48.43607380686666; 2.738496389351122
Quièvrecourt;49.72394979573489; 1.424415864469201
Yainville;49.459028305316814; 0.8226539834860976
Douvres-la-Délivrande;49.27691939481598; -0.3938216637613435
Damouzy;49.78875726980401; 4.674466741675412
Villers-Semeuse;49.75310247913449; 4.737525589096086
Hauteluce;45.77284347445205; 6.637906876617294
Beaufort;45.73075310748897; 6.5691336087223915
La Chapelle-du-Bard;45.43013546752465; 6.10021485788763
Villarembert;45.240470845037876; 6.270865968087444
Sentein;42.84118054362529; 0.9375313470538048
Caumont-sur-Aure;49.08918553484931; -0.8237224717889545
Saint-Côme-d'Olt;44.51883535378135; 2.7849171159156794
Brommat;44.77972319657718; 2.690264571938949
Uckange;49.29971637364282; 6.13359081630058
Grande-Synthe;51.01205074154929; 2.279512980790241
Val-de-Bride;48.81805619990365; 6.703910778449267
Staffelfelden;47.83101570390831; 7.2724714321058945
Villiers-le-Bel;49.01149661289023; 2.4074881053419928
Mouthier-Haute-Pierre;47.02930529004348; 6.28560116905179
Le Coteau;46.033491036016514; 4.086696111234276
Rives-en-Seine;49.52209358157239; 0.7574405679717425
Aire-sur-la-Lys;50.64421834584317; 2.3955651827741336
Lavelanet;42.922204208251905; 1.8338390679218843
Aussillon;43.51197029978554; 2.3634301297655567
Limoges;45.861777664592104; 1.281277979680309
Limoges;45.83220714266917; 1.2751009474844601
Champagnac-la-Rivière;45.719621043948784; 0.8992045615479102
Cléder;48.64481170211835; -4.133217851200832
Quimper;48.00555551759849; -4.127046153372283
La Voulte-sur-Rhône;44.8163383509967; 4.793412850509074
Mexy;49.503792240346684; 5.767730782525224
Jarny;49.171190682278166; 5.893307672887717
Puttelange-aux-Lacs;49.05764452373683; 6.917279248135752
Beaupréau-en-Mauges;47.17355148752678; -1.008501102800108
Bévillers;50.17498967437848; 3.392450535353318
Abbenans;47.50606625315468; 6.4648872009844505
Argiésans;47.601525862525044; 6.814923619689503
Saint-Jean-de-Maurienne;45.283374372326406; 6.356844850666256
La Motte-Servolex;45.59906462208907; 5.888429130694241
Saint-Avre;45.346467356616934; 6.308396954196341
Villers-Bocage;49.089251683916565; -0.6316957214539136
Condé-en-Normandie;48.85705021605078; -0.5472367660972012
Courbevoie;48.89091855992329; 2.2485612851932717
Nanterre;48.90868299582355; 2.205555704602954
Saint-Ouen-l'Aumône;49.05014820117106; 2.1477183600934033
Langonnet;48.0942415026012; -3.4908826138634113
Montpellier;43.59610505824713; 3.912042140202769
Bersac-sur-Rivalier;46.06766939828323; 1.4366926165915108
Mougins;43.584363949309264; 7.007768964090349
Mayenne;48.28951307538718; -0.6189031735816799
Besançon;47.256529309216155; 5.995826523225884
Ploërmel;47.92603329095773; -2.4131114247334695
Ambon;47.54539890177268; -2.52203268078107
Les Andelys;49.244478000604325; 1.411874840084508
Mitry-Mory;48.96704822811489; 2.6313171008753162
Saint-Jean-de-Soudain;45.56826199538317; 5.43173753136246
Allemond;45.149436783554954; 6.046853604324439
Douai;50.372817126594754; 3.096508269367436
Pauillac;45.205722315352645; -0.755391362719267
Arnas;46.009257122341324; 4.725134078978462
Réchicourt-le-Château;48.65879704272201; 6.832285570042218
Ploeren;47.65522991493559; -2.8283855425146878
Le Hérie-la-Viéville;49.80872173648908; 3.663648069562368
Coupelle-Neuve;50.49979207830298; 2.096992306993123
Villette-sur-Aube;48.532894173622104; 4.114554575814439
Méry-sur-Seine;48.52126458512404; 3.917462155390341
Sainte-Savine;48.29164785753796; 4.019156831233933
Faÿ-lès-Nemours;48.234587646038385; 2.6876924504157236
Tilloy-lès-Mofflaines;50.29326910020157; 2.814991997806276
Hambach;49.04835269616961; 7.052450294468972
Le Val d'Hazey;49.16989124876822; 1.3502228992708771
Théziers;43.89555520745861; 4.625050955778707
Saint-Marcel-Campes;44.06981465238287; 1.9899295725295214
Oloron-Sainte-Marie;43.207171600198336; -0.6346881589371414
Buzançais;46.89127921843285; 1.397809571751642
Bayet;46.273879636489575; 3.291161408591834
Cannes;43.5526676957957; 6.958379412794055
Pérols;43.57252496292511; 3.9385097022807045
Saint-Yorre;46.07551144419099; 3.465259058326028
Cusset;46.133916734440504; 3.434597690074345
Castelnaudary;43.30915245635696; 1.9645822100135488
Les Belleville;45.29860601267187; 6.57095198416464
Germigny;47.99595360793761; 3.7557850699888196
Jouy;48.16853424552072; 2.988621482198832
Hersin-Coupigny;50.44325701854325; 2.612030629883177
Mauguio;43.6262277837677; 4.003161671571967
Courpière;45.738678829581325; 3.512912094831816
Bussières;45.833149811005086; 4.273527359460063
Saint-Chamond;45.469408094267266; 4.501886783230253
Chaudes-Aigues;44.85690120459934; 2.9946954693644576
Iteuil;46.50268080828728; 0.3226524947386848
Pont-l'Évêque;49.571844653478564; 2.9870919110918694
Saint-Rémy-de-Provence;43.795442504163205; 4.820118419521787
Blénod-lès-Pont-à-Mousson;48.87017797183889; 6.064987869512862
Chars;49.14836665535544; 1.9078380665503893
La Boisse;45.8428002157474; 5.048863642159101
Coupelle-Neuve;50.5004901640906; 2.096654922603104
Arudy;43.09998075129161; -0.44344982856157017
Poitiers;46.59678698631462; 0.3945220326996676
Champagne-Mouton;45.99091980877548; 0.4008609354196055
Labourse;50.506694630002144; 2.6810979992834825
Vedène;43.95976787757646; 4.898825826835149
Bègles;44.81567141548264; -0.5394779100957557
Châtillon-sur-Thouet;46.65997624261737; -0.2534206311248671
Saint-Fons;45.69156258554473; 4.846040685027691
Bonnétable;48.18486850751877; 0.4125484831051185
Tonneins;44.41153818489076; 0.305753537060125
Les Ormes;46.98692354167864; 0.6025138935226729
Chasseneuil-du-Poitou;46.63156925190254; 0.35932398218209277
Les Églisottes-et-Chalaures;45.08457419060158; -0.05815918423480715
Soyaux;45.63140096173446; 0.18653475542119616
Nice;43.71813897040946; 7.187108561046852
Guérande;47.37070529890161; -2.4553820660614156
Les Sables-d'Olonne;46.533017159715996; -1.7607689425426192
Mazé-Milon;47.43552833904781; -0.26814808459473943
Langon;44.53564463296002; -0.2420726749784557
Lège-Cap-Ferret;44.791710948498945; -1.1692325472764182
Ambès;45.010399107242655; -0.5527023589841119
Ambérieu-en-Bugey;45.95684840106697; 5.328492357682937
Aubin;44.54103665863755; 2.2272064891188634
Noyal-Châtillon-sur-Seiche;48.07972348499535; -1.6603089329611922
Plélan-le-Grand;47.99696214456588; -2.08315735513338
Chamonix-Mont-Blanc;45.92092332738117; 6.874240279572883
Nissan-lez-Enserune;43.29412152778509; 3.127762660162837
Chennevières-sur-Marne;48.79754771425193; 2.546071326063224
Saint-Hilaire-du-Harcouët;48.5765833422721; -1.1103046610099816
Romagny Fontenay;48.66353558693712; -0.9745802365114651
Cherbourg-en-Cotentin;49.6303012655693; -1.5824996258547903
Paris;48.8724020423984; 2.3066308702673055
Paris;48.873879633645984; 2.3102689139395363
Cavaillon;43.85078896784953; 5.036091855152634
Arnac-sur-Dourdou;43.724344324639844; 2.9739215586620897
La Seyne-sur-Mer;43.09957958100141; 5.886767830568557
Saint-Cyr-sur-Mer;43.197011230291835; 5.709774028483026
Barbezieux-Saint-Hilaire;45.45984240328844; -0.15210465136484067
Les Échelles;45.44352137111476; 5.744261824842049
Froges;45.26682404608446; 5.9176406676191045
La Bruffière;47.00224145760011; -1.1547789340418595
Basse-Ham;49.370221783228146; 6.227262167187937
Poissy;48.94092912406411; 2.0508129405289823
Joigny;47.97008052120151; 3.3890741890559513
Fougerolles-Saint-Valbert;47.88302236587886; 6.393065498734956
Bellevigny;46.79256901169367; -1.4326949497961448
Combourg;48.420494260377104; -1.7216498719326498
Montreuil-le-Gast;48.22813499369648; -1.7262644030540137
Clermont-Ferrand;45.77141103090055; 3.120878014494469
Mézin;44.05392529869607; 0.2699207323850074
Rœulx;50.31543600131664; 3.3394109176251905
Plouédern;48.460764493610164; -4.236751613930859
Ranville;49.21716432038417; -0.28134078186043665
Feignies;50.286384599280495; 3.9219582970811833
Gaël;48.150746531670606; -2.2155062101621765
Saint-Martial-de-Valette;45.51423831416343; 0.657798365503931
Saint-Vivien-de-Médoc;45.4209064612634; -1.0329732049025204
Honfleur;49.413880244938575; 0.25654801618079986
Saint-Amand-Montrond;46.71783739343354; 2.5096021028064857
Savigny-lès-Beaune;47.0460425404208; 4.850891008084903
Rumilly;45.86516131802339; 5.955416092030434
La Condamine-Châtelard;44.46191222355008; 6.749275077946476
Digne-les-Bains;44.092368654008084; 6.229055221046409
Pont-de-Poitte;46.579932818469935; 5.693121711554101
Val-Revermont;46.271045217274384; 5.362620629171924
Le Collet-de-Dèze;44.25104382187203; 3.9071890951051573
Sandouville;49.4752734247903; 0.294862951981191
Toulouse;43.60003068101742; 1.4207507155844619
Bouillargues;43.81938887976928; 4.4317858946642295
Bertric-Burée;45.303294503510436; 0.3621555067554131
La Roque-d'Anthéron;43.71142680004553; 5.356138154166909
Toulouse;43.59043967412709; 1.4382239440762274
Saujon;45.678496839403564; -0.909147636477011
Le Thou;46.101007546705794; -0.9472352164007161
Dun-sur-Auron;46.891334925119246; 2.592098955285187
Aubas;45.06207600875756; 1.1902128778954664
Saint-Mars-la-Réorthe;46.858474049805125; -0.942983022912126
Sainte-Livrade;43.65987860989937; 1.1053158390104683
Paris;48.87835796234962; 2.2960258014563473
Brégnier-Cordon;45.66495141628182; 5.612930013715065
Châtenay;46.04175210325407; 5.195618148401626
Saint-Just-Malmont;45.33296708906574; 4.323201120117855
Saint-Rustice;43.8001469051581; 1.3312562150427167
Yenne;45.69209725393063; 5.78373627912163
Verneuil d'Avre et d'Iton;48.71443949137027; 0.9244127039520295
Appenans;47.453812597761335; 6.569283306722744
Saint-Ouen-l'Aumône;49.04034316611735; 2.138852029898389
Viry;46.30203454089715; 5.721601094737726
Paris;48.87023822258842; 2.301541951245623
Mimizan;44.20702008045406; -1.2105665946773845
La Répara-Auriples;44.66286815560494; 4.993659133951122
Cuves;48.73297132170887; -1.0950245764950834
Le Fresne-Poret;48.70816119318015; -0.8210792093805467
Marclopt;45.66700967501814; 4.23599249880165
Renaison;46.050255359887274; 3.9129331436063204
Roche;45.606416564227665; 3.9551794696065996
Sarbazan;44.010921552559815; -0.3519081528282705
Saugnac-et-Muret;44.390522153397704; -0.8297781900360806
Sore;44.328849694722706; -0.6441489100622679
Cergy;49.05020121272722; 2.0613890559801624
Saint-Didier-de-la-Tour;45.55623587930342; 5.465888503807921
Chazelles-sur-Lyon;45.623472013216684; 4.363184459034656
Commelle-Vernay;46.00459295152829; 4.066162164078689
Capoulet-et-Junac;42.797443048183126; 1.5858837808584012
Josse;43.64155418616981; -1.2235110116774643
Lussan;43.62118334264402; 0.7661384318848251
Fleurance;43.82078982408891; 0.6417735007921335
L'Isle-de-Noé;43.578963958010696; 0.4184058689458285
Urdens;43.85795877961278; 0.6989244252175086
Samatan;43.48776649946948; 0.9250655571581353
Arue;44.075239410043785; -0.3130440611430649
Brocas;44.04861922755892; -0.5367058784418162
Brocas;44.06739451324839; -0.5125085862296728
Clèdes;43.619004131209195; -0.37839164993480584
La Bâthie;45.635956773594565; 6.447241938788238
Ayzieu;43.86077295532997; -0.03384667858240425
Labatut;43.55033900750521; -0.9822867653389189
Champagny-en-Vanoise;45.45893798963215; 6.7203302541092755
Pissotte;46.49299958999674; -0.8095390050361533
Saint-Claude;46.37905432413249; 5.840243504439664
Fère-en-Tardenois;49.19441901734555; 3.5129162852027447
Biarritz;43.48809897391132; -1.5479646405265706
Pays de Belvès;44.76449973646616; 1.0272092049929569
Écommoy;47.82542769753788; 0.2560282993801094
Marseille;43.29318800781545; 5.459421397280116
Mulhouse;47.74858146647872; 7.300315247024143
Guiche;43.512432834195224; -1.2207089798077064
Blanzy;46.708269464428355; 4.407306246288201
La Chartre-sur-le-Loir;47.74496297074944; 0.5819070342858286
Luxey;44.24085097060881; -0.5196883485629196
Essey-lès-Nancy;48.70999533800235; 6.240738273255063
Bruch;44.20543041548823; 0.41581619134161485
Tournoisis;48.0087491637092; 1.638976038953871
Lislet;49.68278336328054; 4.0128364784128525
Chambry;49.58398417722519; 3.669849355642348
Marcigny;46.27168922650397; 4.045698043265369
Vion;47.82063390725052; -0.29940833874095785
Aix-en-Provence;43.51995827968687; 5.4358673416387
Bellegarde;43.71868385903871; 4.459032941962058
Lauzerte;44.26705329945519; 1.1020999426267202
Moissac;44.116538004383806; 1.1201582776917123
Paris;48.86588951232383; 2.330649424617511
Thimert-Gâtelles;48.57188692668696; 1.2604687177651268
Risoul;44.6576588966055; 6.615785700583323
Paris;48.88088948817961; 2.3457024457582087
Paris;48.872647885180605; 2.2751159162080996
Paris;48.84536227482692; 2.2833647584170405
Monay;46.83407301987388; 5.6006677923028585
Gennevilliers;48.94658676545953; 2.3066509859370052
Orléans;47.915721954335; 1.887540408951305
Péronne;49.942322005089075; 2.9175222589678187
Nanterre;48.8874333791437; 2.2030592891921033
Saint-Bris-des-Bois;45.77779746617803; -0.493506106144393
Puilboreau;46.175916901298265; -1.1190825610400301
Jeu-les-Bois;46.6755297572088; 1.7494885664921187
Brides-les-Bains;45.44968854095353; 6.582972847107688
Palaminy;43.20388945989148; 1.0623856501450528
Clermont-Ferrand;45.78309700512119; 3.071476158014318
La Vôge-les-Bains;48.00580107981229; 6.273936236511372
Le Cannet-des-Maures;43.42188602475248; 6.38329746834412
La Celle;43.38432026821439; 5.978491305895597
La Madeleine;50.64587076503545; 3.078750326185656
Huez;45.087182620224624; 6.0711831437194395
Outreau;50.70577101867109; 1.6004545812298976
Le Monêtier-les-Bains;44.955949416730334; 6.544554135746465
Petit-Couronne;49.38281185268468; 1.0211734385536106
Cognac;45.69528340189996; -0.3497686901147017
Confolens;45.99289450788776; 0.671574229705969
Montaigut-le-Blanc;45.573825230785296; 3.0879272072413473
Montbron;45.673661712416056; 0.49288830664990235
L'Arbresle;45.82480230732038; 4.606192636676739
Châtillon;45.88175372828666; 4.629643112991342
Allauch;43.320354125901176; 5.480970450587269
Fos-sur-Mer;43.45593613139901; 4.903992927278525
La Chapelle-du-Châtelard;46.06942757828404; 5.025667042803684
Montréal-la-Cluse;46.17421814237046; 5.568231330477945
Lons;43.32489977881758; -0.3806480890082331
Montluçon;46.35320311961793; 2.6073122153006483
Ferrières-en-Bray;49.47712842763526; 1.7408052165028869
Cessy;46.326284325441634; 6.063267171442739
Hyères;43.13414438499618; 6.152762769407148
Bormes-les-Mimosas;43.14032832053619; 6.357349480246261
Loches;47.14206858813477; 0.9893753178896961
Saint-Malo;48.64925535538901; -1.9961513456979858
Saint-Dizier;48.627401483401044; 4.990727212638181
Masseube;43.443443966315876; 0.5692477000719184
Sivry-Courtry;48.54701443386995; 2.7718917580622753
Saint-Flour;45.028674791102546; 3.0930785331546655
Saint-Setiers;45.68504353690591; 2.1377009405284095
Tulle;45.25399536260933; 1.7560026221037548
Preuilly-sur-Claise;46.858567404081384; 0.9421822613283182
Vitré;48.12884913395155; -1.2390917650777356
Lyon;45.74460687640185; 4.818520715933915
Saint-Jean-de-Védas;43.58101963833165; 3.8484700647148737
Cuiseaux;46.50084149210767; 5.378310674088549
Brains;47.17267615189505; -1.6933421606326384
Indre;47.20714655919945; -1.6855012937329408
Longfossé;50.66206356664278; 1.8325703651502863
Haybes;50.00065487969263; 4.7089400154259105
Saint-Père-en-Retz;47.20456802991991; -2.0563804103283463
Vias;43.31667104936193; 3.4276035757545467
Airvault;46.82413671501036; -0.12629271843005055
Labergement-Sainte-Marie;46.79301889268098; 6.275674339982476
La Teste-de-Buch;44.5402227477202; -1.1605788374107606
Cenon;44.854672918963644; -0.5280896136367621
Cubnezais;45.066511669877535; -0.4340539436918052
Faux-Fresnay;48.65060090828353; 3.9771993371455423
Divatte-sur-Loire;47.26557712328134; -1.3133298244855336
Riaillé;47.508149094562775; -1.2831717387195196
Savenay;47.32977865788938; -1.906682808913974
Meyrargues;43.64397913796124; 5.514023506657473
La Motte-Chalancon;44.467422733447876; 5.367299094206089
Liart;49.7734300705497; 4.344716786599851
Cogolin;43.26011277011798; 6.569542449048628
Saint-Alban;43.69300817881268; 1.4038532163705222
Nice;43.67626077012545; 7.206758830840202
Pierrelatte;44.368365836124184; 4.708727787785862
Neuvic;45.38806406432708; 2.264754957168694
Formiguères;42.60557867914224; 2.1098709947659855
Bouzonville;49.296959756987; 6.517762422063
Goetzenbruck;48.97561645847132; 7.369446058585977
Questembert;47.682839268130465; -2.46216000401746
Vienne;45.5418413486457; 4.855409369526415
Saint-Cyr-en-Val;47.79259965587113; 1.9280862797233334
Segré-en-Anjou Bleu;47.691125966194534; -0.8958329365325571
Villers-le-Sec;49.76769066753345; 3.516912921627397
Montverdun;45.714921942631285; 4.059524131600939
Saint-Eustache-la-Forêt;49.555030347356414; 0.45668711919991506
Épinay-sous-Sénart;48.686664719895816; 2.51479965808069
Grigny;48.66890574235559; 2.397621828094612
Val-d'Arc;45.52629646367478; 6.31512767881627
Laguian-Mazous;43.42395755477545; 0.26555232422364605
Saint-Girons;42.979293350218626; 1.126342756660179
Montauban;44.00813873647635; 1.3410500058593635
Saint-Martin-le-Vieux;45.756990448718504; 1.1319598682447687
Valence;44.91702378450195; 4.927251426134939
Avignon;43.92706962099854; 4.794213656563076
Caudan;47.824563837800646; -3.312665620666952
La Rochelle;46.16102121981168; -1.2070608903988795
Guipavas;48.42303974914455; -4.427811390742554
Sevran;48.94423226610529; 2.5140033168392137
Avrieux;45.214609107913; 6.712279214545678
Barberaz;45.56467807150219; 5.942631477909377
Séez;45.61916596732146; 6.7895471400929
La Plagne Tarentaise;45.51525287182313; 6.6946847606801665
Six-Fours-les-Plages;43.11353659032915; 5.845705357841922
Le Havre;49.47787647360661; 0.14760587381602575
Saint-Victor;46.38671138144066; 2.590238875143232
Kerlouan;48.64017205371657; -4.3853619320130885
Sainte-Honorine-du-Fay;49.069031811094256; -0.4976156384588261
Laudun-l'Ardoise;44.086273562972146; 4.703075038370419
Laval;48.05164380142051; -0.7927529760148743
Champigny;48.31771684676972; 3.145536192346534
Airaines;49.95966063967091; 1.9558355179852585
Vaupillon;48.469285737909; 0.9954155486261916
Maintenon;48.576928136920216; 1.5944116777751554
Gacé;48.78152932330708; 0.2986998655662513
Chagny;46.90264617562338; 4.7506909303580835
Beaune-la-Rolande;48.076140483933884; 2.4293967899154905
Vimoutiers;48.93930762199391; 0.19560197897859202
Rugles;48.81866791033854; 0.7136921699534174
Albert;50.00453606114525; 2.634534167008199
Le Mans;48.002344972808935; 0.17686393870815767
Villenave-d'Ornon;44.76063084291551; -0.5484431283551926
Fleurance;43.86222289098494; 0.6499058473588907
Foix;42.96075971955206; 1.6117763095874655
Gourdan-Polignan;43.076265550126905; 0.5724741725582545
Argœuves;49.9427930472975; 2.254184894392074
Montataire;49.24537087861167; 2.441681264772792
Saint-Léger-sous-Brienne;48.41426639676067; 4.519445916301941
La Chapelle-Saint-Luc;48.31605891337948; 4.040740892014169
Tonnerre;47.852918042805044; 4.011765993457694
Gauville-la-Campagne;49.04113955592195; 1.0952252915665788
Insming;48.95885410002459; 6.887371918173656
Kerbach;49.15406827075463; 6.976270924882472
Mazet-Saint-Voy;45.073427220090146; 4.285193460785851
Serquigny;49.12645225319825; 0.7213465968769551
Cébazat;45.8438480580299; 3.108984302930261
L'Hermitage;48.12040823057983; -1.8197714698378795
Bédée;48.14792234339275; -1.9475633183249246
Doullens;50.14664125802609; 2.3386095166267333
Aureilhan;43.237568132159836; 0.0911250261377302
Lescar;43.31586604611208; -0.43344835755641375
Revin;49.93043506258336; 4.641710295533563
Aigurande;46.4499258415008; 1.8272704643837827
Salzuit;45.20055542088523; 3.493233461786469
Vézézoux;45.39468231220127; 3.3398200885920666
Campouriez;44.662153015930855; 2.583421267887349
Noyelles-Godault;50.41835788643712; 2.9807193031037653
Châteauroux;46.81231866049432; 1.725550585911858
Cannes;43.557191951245194; 7.02517920506976
Sainte-Maxime;43.322432628710786; 6.645548293200628
Saint-Maximin-la-Sainte-Baume;43.466142372748784; 5.866850883669439
Lunel-Viel;43.68032790636633; 4.088313637682827
Sillé-le-Guillaume;48.17449977956288; -0.15160845935472356
Boos;49.381399605696856; 1.217060711787367
Varennes-sur-Allier;46.30510161106365; 3.4090555334587536
Romenay;46.504937673512906; 5.0509437679841716
Meung-sur-Loire;47.829684376624954; 1.680483214250201
Val-Cenis;45.2861833263889; 6.886315258280124
Ham;49.73823775047221; 3.0931316513229006
Étréchy;48.50004275151921; 2.2023025190242165
Saint-Germain-lès-Arpajon;48.58357088390056; 2.2863772092022416
Charny Orée de Puisaye;47.886709427225085; 3.106591394085509
Mons;43.57032271225646; 2.940606287571874
Saint-Genest-d'Ambière;46.81380666737675; 0.33843565389140906
La Gresle;46.096734643881085; 4.291089388587813
Chaumont;48.1180932178182; 5.15290304636853
Rennes;48.11003076300203; -1.725627982533618
Avignon;43.952131772355095; 4.824043061687295
Persan;49.14573985299702; 2.265830320859862
Arcueil;48.80615046847601; 2.32688584548766
Hostens;44.485855454892324; -0.6262659882408815
Izon;44.90945342941996; -0.3569412218862117
Aubervilliers;48.91135396508159; 2.368379370552618
Bordeaux;44.8377115371993; -0.5476361260989214
La Salle;46.41389334838771; 4.864593820204465
Bassens;44.91580006437351; -0.5390806201709272
Pertuis;43.706708245465855; 5.512212355018951
Verdun;49.149255380694996; 5.401410389493562
Marquette-lez-Lille;50.671421711147275; 3.069484487789283
Villeurbanne;45.784985119632324; 4.860944149209935
Épinac;46.97784752075009; 4.504963838603899
Villers-Cotterêts;49.24399217631311; 3.0880688855637577
Crugey;47.184315692792644; 4.6791591786416085
Annecy;45.91648470190983; 6.148207437170307
Fontenelle;47.5112100138278; 5.367445334959887
Dambelin;47.36698665224409; 6.6613820417698335
Rognac;43.49735297271834; 5.20393971603019
Villeneuve;43.87688151291983; 5.863916131168539
Oullins-Pierre-Bénite;45.71095846953748; 4.819827740581599
Lyon;45.76050668519288; 4.832133490471922
Nice;43.72989921564178; 7.253857227938494
La Sauvetat-du-Dropt;44.64885547076901; 0.34010898633519443
Saint-Philbert-de-Grand-Lieu;47.05061234861618; -1.6124465465734203
Luçon;46.47003059459828; -1.1741258399158
Pouzauges;46.77611767030158; -0.8364543495092098
Chantonnay;46.70474177457324; -1.0383130389440693
Plourin-lès-Morlaix;48.56066640480914; -3.8217197818891515
Longué-Jumelles;47.36634665200949; -0.08831805351377622
Longuenée-en-Anjou;47.550141685286086; -0.6447039770155248
Amelécourt;48.830013762429815; 6.495149417041444
Troisfontaines;48.671383318084395; 7.100404892529753
Magnanville;48.97380379226675; 1.6955422978180674
Pontorson;48.5530607858178; -1.4809511162299505
Neuilly-sur-Marne;48.85474506342683; 2.519544603741269
Obernai;48.459453502483846; 7.508090807363735
Bourgueil;47.273266253573816; 0.16989326562272586
La Couyère;47.8857916597065; -1.4761317797237667
Annecy;45.90513781546943; 6.106640393484043
Saint-Maur-des-Fossés;48.811910799869324; 2.4774273669231994
Bricquebec-en-Cotentin;49.489742730946986; -1.6871592883281143
Marans;46.29950963235491; -0.9860876922023736
Blanzac-lès-Matha;45.87167631728506; -0.3271387037402988
Argelès-sur-Mer;42.5497200563264; 3.007280208179911
Banyuls-dels-Aspres;42.55031705518959; 2.859586070941185
Plémet;48.1681266073406; -2.6264051121554237
Solliès-Toucas;43.20039179399829; 6.028268031057017
Châteauneuf-sur-Charente;45.591051421280866; -0.03343425349082433
L'Union;43.66358086437517; 1.4648988572156778
Bonneval;48.201382494336514; 1.3984113238313332
Béthune;50.53598708182043; 2.6666809210331923
Laveline-devant-Bruyères;48.1790194639106; 6.753481966920508
Sézanne;48.71803808619795; 3.7452806211749383
Les Martres-de-Veyre;45.678750053368184; 3.2029216619400107
Villerupt;49.46901250102284; 5.918193717580674
Molinons;48.224372642928465; 3.5306620241468485
Sées;48.59676003808169; 0.19021184308159894
Giromagny;47.73464803107776; 6.828790477700071
Saint-Philbert-de-Bouaine;47.00004100487278; -1.5059888257061944
Saint-Gilles-Croix-de-Vie;46.69559325986832; -1.8900701639830393
Bruz;48.00991507196867; -1.773668317618703
Cesson-Sévigné;48.1099226134799; -1.6212762264520912
Saint-Pierre-Roche;45.72583031597132; 2.8106887706006747
Saint-Sauves-d'Auvergne;45.610741005045696; 2.686845527727544
Tourcoing;50.74162859176155; 3.1465613881214343
Mimizan;44.1948017922608; -1.2295049995137841
Demandolx;43.87825179384343; 6.539594917716676
Nérac;44.14748166373991; 0.3243770629010126
Glisy;49.8801608011926; 2.372564654402537
Roye;49.69438633463121; 2.801361561732555
Méru;49.21696804508497; 2.129071086828354
Saint-Firmin;44.77615540362044; 5.991796935404496
Mercurol-Veaunes;45.05099469567713; 4.865559827292989
La Cabanasse;42.49509266816478; 2.091831886676682
Saint-Cyprien;42.63358582637124; 2.9997073486903667
Fuilla;42.583253054676334; 2.3604555189918353
Arâches-la-Frasse;46.01714467444141; 6.635082203278054
Valserhône;46.09779962622264; 5.818046374807308
Senlis;49.20376264037272; 2.606885726186922
Saint-Germain-du-Puy;47.112363072875226; 2.497286423728915
Saonnet;49.258807401758176; -0.8900946251725999
Saint-Pierre-le-Moûtier;46.79870123696943; 3.110228479045178
Astillé;47.95879402306847; -0.8821277411190699
Fromentières;47.84856710203778; -0.6893527275868494
Saint-Usage;47.105202698407446; 5.247160725045643
Dijon;47.352137345949615; 5.05948181500887
Richebourg;48.81130521970309; 1.6172993113131386
Bérat;43.38728726882958; 1.1998364546561395
Riec-sur-Bélon;47.86606024982699; -3.7180878046981083
Moulès-et-Baucels;43.94575261856812; 3.724776463357978
Port-sur-Saône;47.69185033320509; 6.048240474636684
Jussac;44.99928255984801; 2.431926569000806
Marseille;43.27750500413049; 5.397458601519282
Marseille;43.355252687863455; 5.339591425273813
Cintegabelle;43.29497583771753; 1.5517411781860226
Mauriac;45.218575870534416; 2.3486563290317206
Maurs;44.69931878211765; 2.2063063464450603
Bourges;47.065655148154164; 2.393242922590497
Marsac-sur-l'Isle;45.191889723544485; 0.6653063647227954
La Roche-sur-Yon;46.62815465568599; -1.4019139270640069
Saint-Pierre-le-Vieux;46.382379543110396; -0.7390688099082691
Brégnier-Cordon;45.654944166031775; 5.607008681322712
Saint-Marcellin-en-Forez;45.47960301434379; 4.148769822972476
Saint-Didier-de-Formans;45.956303700600046; 4.787066057564638
Saint-Étienne-sur-Reyssouze;46.4142996741825; 4.98054770601939
Saint-Étienne-de-Cuines;45.352679040392715; 6.2900701540001895
Les Belleville;45.40779640258641; 6.490677029930128
Seloncourt;47.469662130347196; 6.855804781642802
Couflens;42.792607429114085; 1.1893386319502066
Couflens;42.756419592726296; 1.1884203605085222
Laroque-d'Olmes;42.95932482870113; 1.865366831288426
Prayols;42.927045837421346; 1.6231776745716042
Froges;45.25856970542096; 5.911157990081722
Barbâtre;46.93205784488906; -2.153903474065962
La Boissière-des-Landes;46.55595484984494; -1.441140228912297
Sauveterre-de-Comminges;43.049031978938636; 0.6879993565742305
Auriac-sur-Vendinelle;43.52315490540068; 1.8040075019840343
Oyonnax;46.235958175333735; 5.669522863305246
Biol;45.49133655200175; 5.37763433573256
Tulette;44.282898626241845; 4.94134719676416
Salles-sur-Garonne;43.26624124700288; 1.1567903282844951
Gerbaix;45.61062888441403; 5.7204686275342125
Lézigneux;45.56793958203198; 4.064228457069964
Trensacq;44.25871811115216; -0.7538828278885044
Les Sauvages;45.91513255763932; 4.358979709839495
Saint-Marcel-de-Félines;45.87353457622257; 4.208308340190759
Saint-Michel;43.438290664447905; 0.3524221807763193
Caussens;43.948600844387535; 0.43494488605222426
Masseube;43.430818069025285; 0.5846424262526846
Duran;43.662352657205034; 0.5572338440151027
Gazax-et-Baccarisse;43.60838714431121; 0.19233592965390645
Tournecoupe;43.86704235122443; 0.8387051492718741
Cours;46.09591948847659; 4.387526801377823
Cléry-en-Vexin;49.132739446483214; 1.8571025834789994
Vic-Fezensac;43.738453193630974; 0.309224681245197
Castets;43.862142418649434; -1.16267547643718
Argentine;45.49243387222905; 6.310631708229375
Escource;44.18137993198887; -1.0125080530231676
Labenne;43.605279552234535; -1.4344527785974648
Ornon;45.05094355485711; 5.9873448866553085
Gauchy;49.83153651936478; 3.284625547336477
Tonneins;44.352522775551215; 0.3311109810946751
Allaire;47.65111705183875; -2.2171316941765316
Saint-Victeur;48.29988549567645; 0.021371393627809765
Noyales;49.89907714449579; 3.5580554775401323
Cirey-sur-Vezouze;48.572320844427765; 6.948495941141376
Villevaudé;48.90361264548191; 2.6636020094314485
Boé;44.173251634913996; 0.6630444327021436
Cancon;44.53679385894234; 0.6467341173080908
Valentigney;47.45221824044823; 6.836820496640183
Le Thor;43.92116391263493; 5.023759512799029
Tarascon;43.82415101433238; 4.692855116493432
Piolenc;44.17245675644336; 4.788074889333584
Saint-Marcel;46.76183272514296; 4.8603701080002235
Gap;44.55559797322547; 6.07276578414342
Paris;48.87618396271314; 2.353894563809444
Paris;48.87253332391312; 2.322743454817813
Hendaye;43.36164523294707; -1.7584851632651837
Saint-Waast;50.30967231193731; 3.753584809274077
Cambrai;50.18023374468357; 3.242903586150331
Paris;48.86483376889209; 2.2855427379293705
Floing;49.72445085225618; 4.935280005531883
Provins;48.547453259829254; 3.295286815427672
L'Horme;45.49063928628076; 4.552414483159619
Saint-Ouen-sur-Seine;48.90997926057617; 2.327751178444006
Fontaine-Étoupefour;49.1378963842517; -0.4595518547420987
Cholet;47.038094890080366; -0.882001758144771
Saint-Mard;46.101825149866286; -0.6643892313009679
Seix;42.871910786877706; 1.2041649427675292
Sémézies-Cachan;43.50304810830003; 0.7341566891651173
Saint-Égrève;45.23398970643041; 5.664691465438058
Cuzion;46.45610865623989; 1.6168376589227131
Le Bourget;48.93524038973987; 2.439716155089349
Clichy-sous-Bois;48.915047040830494; 2.5429617392490123
Orcines;45.76503884047239; 2.998332021690288
Cholet;47.067759360067235; -0.8416749368005542
Wasquehal;50.67239974031122; 3.1350319193505642
Saint-Julien-en-Genevois;46.129332361187856; 6.091102696174022
Espondeilhan;43.44286649935023; 3.2513997612798033
Selonnet;44.37607773791673; 6.324616129769659
Auris;45.03065840274051; 6.078236241010372
Rion-des-Landes;43.918617515422014; -0.9153216733859969
Morcenx-la-Nouvelle;44.03143778431751; -0.9052865619625207
Mouvaux;50.71134559115886; 3.1315533929741814
Gourdon;44.74437207519056; 1.3887151655876495
Gagnac-sur-Cère;44.94163496642702; 1.9167795670601333
Saint-Brieuc;48.52294829129333; -2.7566904007467685
Mansle-les-Fontaines;45.87665644243696; 0.1605136061013354
Bel-Air-Val-d'Ance;44.821540518875636; 3.6354992224123
La Ciotat;43.185729026079564; 5.599638447224394
Fos-sur-Mer;43.42830577248562; 4.848948649576316
Grenoble;45.172131569799916; 5.7458696243563105
Éguilles;43.5442524438991; 5.355801650438515
Culoz-Béon;45.84743954904846; 5.77190044686585
Biscarrosse;44.41435129529076; -1.1531685970347962
Plourin;48.515527526788965; -4.686458073219684
Nesle-Normandeuse;49.90583810189526; 1.6779895353727
Dormans;49.06410981495549; 3.616489538115244
Rouen;49.447451833389664; 1.0777629703696585
Rennes;48.139273069870086; -1.711285491312395
Mesnil-Roc'h;48.47618180808008; -1.8853031450573012
Morzine;46.19042525252493; 6.693983806822751
Rennes;48.13878500355438; -1.6511318549886556
Houdelaincourt;48.548317729386774; 5.485679483384565
Ligny-en-Barrois;48.680271544573976; 5.332125633293965
Bonvillet;48.0997277017701; 6.046074232887838
Chevry-Cossigny;48.72930718225928; 2.67864517329143
Coulommiers;48.8155529586293; 3.1060593408342947
Bandol;43.14576118824527; 5.766342115156976
Puget-sur-Argens;43.452287325434725; 6.680992440939997
Le Mené;48.30405206967103; -2.5048778446326145
Plouvara;48.49015359838404; -2.9058317403454788
Putanges-le-Lac;48.7195439922692; -0.2658694223871378
Montpellier;43.64722655209665; 3.8422333734284106
Lunas;43.68548132056204; 3.1782654608204193
Lyon;45.77574798030366; 4.806377924460628
Cahors;44.49757250510496; 1.4396701348005916
Calais;50.93170395673963; 1.8479780442018565
Challans;46.849580618973924; -1.8599319886538215
Chavagnes-en-Paillers;46.86989703598657; -1.261802251193464
Montpellier;43.62324732331258; 3.8952476212132434
Winnezeele;50.83172191800372; 2.542828192257451
Domfront en Poiraie;48.59368668755791; -0.6269579554492897
La Selle-la-Forge;48.737292840800215; -0.5530876896994185
Guerlédan;48.19726240675049; -3.0057591655798266
Boué;50.01917306205777; 3.6919507654111845
Bordeaux;44.82991159700868; -0.5609547767905976
Fondamente;43.86234473549965; 3.121341020371921
Morchies;50.125948291355186; 2.952409442372483
Saint-Jean-d'Angély;45.92774504734195; -0.5271043804118223
Die;44.761347372033605; 5.355903702038662
Montréal;44.50516002767962; 4.309006625229704
Dives-sur-Mer;49.28509427428849; -0.10989851910791867
Ifs;49.13945604467693; -0.3395787802872034
Essarts-en-Bocage;46.761141694004635; -1.2454041745835747
Nouzonville;49.81991599159654; 4.742606079777414
Osnes;49.656888109130904; 5.162303326316912
Tignes;45.50461605019034; 6.924006304721525
Vendôme;47.791642748396015; 1.0558513894838764
Agde;43.30829938593857; 3.506402424986616
Clermont-l'Hérault;43.62144464716113; 3.4359229288439876
Muret;43.447781431606; 1.3412550789230937
Seysses;43.51612221047338; 1.2828831483191587
Toulouse;43.609471522356046; 1.452197104754409
Le Monastère;44.34284630073962; 2.573476574632675
Nantes;47.18767586472196; -1.605993758801099
Chatuzange-le-Goubet;45.038904293362584; 5.088631402780661
Cranves-Sales;46.18034970619382; 6.280428531976587
Masevaux-Niederbruck;47.776570175979636; 6.997737715317729
Quiberon;47.48868577531476; -3.1222821133180925
Plumelec;47.83339599149645; -2.5840953205640855
Chinon;47.17180187542382; 0.2434811378754168
Couesmes;47.552764983553665; 0.33006301445039654
Chalon-sur-Saône;46.817365266548855; 4.8504388650722685
Rupéreux;48.64218962590573; 3.330779129405098
Marseille;43.289781810166595; 5.369344740595971
Le Château-d'Oléron;45.88291259638367; -1.2206599206357285
Port-Jérôme-sur-Seine;49.530274122403824; 0.5843608829649423
Créteil;48.80012093896278; 2.450426210769759
Saint-Georges-sur-Baulche;47.809006374177756; 3.5495934394312574
Lapoutroie;48.142780497597265; 7.182563557810374
La Plagne Tarentaise;45.553164295689015; 6.659436258887069
La Roche-sur-Yon;46.68969192225325; -1.4331769121450595
Saint-Léger-Magnazeix;46.31739288506193; 1.2539511619021284
Jaunay-Marigny;46.693851947771385; 0.36561436171568945
Brou;48.225386643015156; 1.162768838976878
Montois-la-Montagne;49.213555446718175; 6.010806793038455
Saint-Barthélemy-d'Anjou;47.47327355796522; -0.5147625486858277
Méry-sur-Seine;48.5219638235178; 3.918865896695676
Ormes;49.23724701007324; 3.9755591578303124
Saintes;45.751897908603326; -0.6657149443469043
Choisy-le-Roi;48.77233646933942; 2.407781273826042
Écrainville;49.64246148195736; 0.32950856995931904
Courbevoie;48.90569913433384; 2.260847539526996
Puteaux;48.87624591481561; 2.237132918550068
Bois-Jérôme-Saint-Ouen;49.09464011116048; 1.5695802721892962
Commentry;46.287618133236116; 2.755730904661471
Guidel;47.76734050765472; -3.486726500845691
Rousset;43.47835621545808; 5.602547997782964
Forges-les-Eaux;49.613227606982335; 1.5569078677260886
La Vicogne;50.07383889956461; 2.3266477056285657
La Roche-l'Abeille;45.60892051456599; 1.2272398924566223
Château-Chinon (Ville);47.05772667635228; 3.938528720888599
La Charité-sur-Loire;47.18833682220182; 3.028898184677485
Conques-sur-Orbiel;43.28682287325967; 2.367056772989584
Axat;42.7879910598871; 2.2220189185991246
Saint-Fargeau;47.64755484559828; 3.0572342535778323
Montrevault-sur-Èvre;47.254868707551196; -1.0232957536423672
Trélazé;47.44971509155686; -0.45465358510238735
Bois-Guillaume;49.46751699782541; 1.132598639597538
Ornans;47.10877420066075; 6.127147608003759
Plouasne;48.320823379550085; -2.060603899736911
Évreux;49.020399093818384; 1.1802428973051269
Le Grand-Lucé;47.88161816093086; 0.4609649950940713
Beaugency;47.785204504880056; 1.6123243611988134
Marseille;43.321838188884385; 5.366777733589153
Guarbecque;50.61897576550978; 2.5026042217915103
Grandvilliers;49.66481127189775; 1.9351748533740651
Sarrebourg;48.741260531634104; 7.037557560475054
Billy-Berclau;50.509675364395086; 2.84701887739637
Saint-Longis;48.34616062217595; 0.3573791866489863
Le Pian-Médoc;44.948459840285324; -0.6260672803486598
Pessac;44.78885977097517; -0.6654337233541692
La Réole;44.59253145291747; -0.03199996675268079
Meximieux;45.90671520760957; 5.214948581807019
Monswiller;48.761282921642355; 7.376360460108658
Scherwiller;48.277155350217235; 7.425535932800128
Saint-Blaise-la-Roche;48.40554694590262; 7.161369465321596
Sainte-Marie-aux-Mines;48.25026229633527; 7.198708591580467
Auriac;43.460294590588475; -0.3210461240004205
His;43.06370624037156; 0.9602141554691256
Joué-lès-Tours;47.35547251883799; 0.6446920730782325
Quimper;47.993356958006586; -4.071924335292361
Brives-Charensac;45.04904352032825; 3.9076443828790857
Allassac;45.28487020499064; 1.4651622795036783
Pont-Audemer;49.34689687477169; 0.5255505783174783
Vauvert;43.70350355045381; 4.269296055429765
Guipry-Messac;47.82962797729498; -1.7866280269033228
Paris;48.826521852561164; 2.3556207636721402
Saint-Juéry;43.950899515351324; 2.2201708128178264
Croixrault;49.78400955497028; 1.990981375274068
Castelsarrasin;44.0398967160556; 1.119752244933426
Gaillac;43.90295440443988; 1.885669155425245
Castres;43.62232168881757; 2.2512313120450167
Hierges;50.09072825643942; 4.71674178484383
Vouziers;49.394873958430765; 4.677999221121224
Bourbon-l'Archambault;46.580303032036326; 3.063953162100061
Bellenaves;46.2013504725312; 3.0893860262391604
Dompierre-sur-Besbre;46.51637177698234; 3.692327496188906
Douai;50.387922459032794; 3.06489572415324
Saint-Marcel;46.606723506623304; 1.4995447993041255
Saint-Hilaire-de-Riez;46.73870639467591; -1.932379457547332
Saint-Claude;46.36602006104962; 5.803140754724228
Bourbon-Lancy;46.62172066817689; 3.738684237847708
Mulhouse;47.74213695293644; 7.330583207422057
Drumettaz-Clarafond;45.647348790055176; 5.912975496361305
Chambéry;45.580278352129916; 5.908750760090352
Gouvieux;49.18260224588044; 2.37778879251014
Monnerville;48.35150583280175; 2.0345206068554713
Celles-sur-Durolle;45.873526797613295; 3.6409625574873004
Le Chambon-Feugerolles;45.38933888415847; 4.309262557636389
Changy;46.14432569227418; 3.8956247009573497
Lézignan-Corbières;43.20131487235241; 2.7785431306623765
Trois-Rivières;49.706767047150635; 2.53205991536635
Sainte-Cécile-les-Vignes;44.21764334998769; 4.8860603479130305
Les Mureaux;48.99261711074055; 1.8954676544616813
Cergy;49.05416403390045; 2.013270978369347
Grézillac;44.81292700308781; -0.23292257981003653
Faux-Fresnay;48.64865673950044; 3.9750012442612053
Lorris;47.88703341260779; 2.5261166501877197
Auriolles;44.7450061476583; 0.034926137601911385
Salon-de-Provence;43.639379954272286; 5.112262657275256
Vinon-sur-Verdon;43.725059999292554; 5.82597367613887
Lille;50.63141502807995; 3.0374971174633476
Lyon;45.769869983791324; 4.8507483501083035
Mâcon;46.32432041468679; 4.837414554967168
Thonon-les-Bains;46.35525895311696; 6.475708610641277
Poitiers;46.60852529204849; 0.34374551411921794
Blaringhem;50.69282837457394; 2.3907667785715447
Venarey-les-Laumes;47.54038278641946; 4.432593725450465
La Mure-Argens;43.976417368523244; 6.517773713310063
Dévoluy;44.69572298571569; 5.893336070572775
Plombières-lès-Dijon;47.33108241089239; 4.977556484803861
Décines-Charpieu;45.75111924352606; 4.934854003126881
Guillaumes;44.067340560838126; 6.854088843536056
Salon-de-Provence;43.63880689519056; 5.046783567011888
Évry-Courcouronnes;48.61628909936718; 2.4301816525559548
Corbeil-Essonnes;48.611232376700166; 2.4578038868787377
L'Isle-en-Dodon;43.37929885576551; 0.8411207812125865
Élancourt;48.77409245532543; 1.9526627759382666
Saint-Pierre-lès-Nemours;48.27685499843913; 2.686559505909057
Loqueffret;48.33096944445251; -3.8007414184912
Lacanau;44.98246753620695; -1.0540645218707914
Saint-Médard-d'Eyrans;44.72216938319036; -0.5253600316198729
Montlaur;43.88173109094078; 2.834307906146511
Huberville;49.49985727317248; -1.4339514476547879
Servon-sur-Vilaine;48.133340543759395; -1.4700127998200911
Cluses;46.06049241341418; 6.583903088601954
Cornier;46.085510513106875; 6.292938652828369
Cruseilles;46.040384341403026; 6.0991544405742655
Sainte-Feyre;46.150392771854044; 1.8958906888528044
Jonzac;45.436628703746216; -0.4397905304106154
Marennes-Hiers-Brouage;45.8262670399071; -1.1231161129845117
Le Bois-Plage-en-Ré;46.19041090958738; -1.3611935868200835
La Mothe-Saint-Héray;46.352922573915905; -0.11827426934172147
Aigre;45.88751604159078; 0.0014256226253992555
Estaires;50.64577948860792; 2.7284156752998245
Loos-en-Gohelle;50.45076270277081; 2.801890571775942
Reims;49.260399988588205; 4.0032134061114375
Mur-sur-Allier;45.745482221827444; 3.2367696109258004
Granville;48.86931047121968; -1.822466051757033
Ribemont;49.77910225267608; 3.4587614984630672
Andel;48.480617527975674; -2.529659260898293
L'Isle-sur-le-Doubs;47.43773811022001; 6.581545902212308
La Roche-sur-Yon;46.63492599220725; -1.412753789524669
Thiers;45.854996461593174; 3.5299544289516276
Tende;44.047695245391886; 7.585855863669893
Arcangues;43.458869448377385; -1.5348558015897735
Fourmies;50.02174342064135; 4.063628894621147
Recquignies;50.28321750594775; 4.048427853854481
Fumel;44.49744623418871; 0.9456370322754095
Montigny-Lengrain;49.3937488906134; 3.110115048524468
Thue et Mue;49.19278616869861; -0.5301049272502645
Avesnelles;50.10131170332795; 3.96007102806856
Gosné;48.239348843958425; -1.4631218865008968
Genilac;45.51939681001546; 4.590543180347901
Tarare;45.88922586035622; 4.444840491331997
Vernosc-lès-Annonay;45.23634585469347; 4.7015481228359075
Ille-sur-Têt;42.65657808133824; 2.648110362316841
Nice;43.7017243689304; 7.251063087916723
Tautavel;42.79623133196936; 2.695703819180914
Talence;44.81607665884623; -0.5971732681091396
Villeneuve;45.080644760156154; -0.6337689299153723
Falaise;48.91432578162604; -0.19462338924934208
Saint-Doulchard;47.106285745301825; 2.3811052509787722
Pont-Sainte-Maxence;49.30790152545286; 2.594996225338492
Tenay;45.92441536194967; 5.499514076732209
Champoly;45.855501744104764; 3.8376370026924533
Saint-Capraise-de-Lalinde;44.84579485894573; 0.6340604684593647
Balma;43.615858305808395; 1.4929026057574504
Alès;44.13458708087039; 4.075399203334682
Fontoy;49.3541256540092; 5.980535316658084
Uzerche;45.43030149762572; 1.55054123629186
Lanobre;45.41654592611094; 2.5038139678363636
Laveyron;45.19782754612784; 4.815947596099446
Thionville;49.367967150624345; 6.176345224411159
Brantôme en Périgord;45.38664990195272; 0.630167359492368
Campagne;44.89661378158787; 0.9720826527689387
Ignol;46.957653988753584; 2.846517875180937
Naves;45.34224864056134; 1.7453337240348339
Ondes;43.78362443276209; 1.3167067469798184
Moliets-et-Maa;43.84388882910336; -1.3555648380697263
Saint-Vincent-de-Tyrosse;43.67220838598403; -1.3032198124189862
Attignat;46.29116770606337; 5.155003995421527
Jasseron;46.21107105847698; 5.296699364454808
Saint-Romain-la-Motte;46.09312307184498; 3.975142926235582
La Tourette;45.42118362889842; 4.088977410346064
Saint-Bernard;45.95140313964186; 4.74806477380377
Saint-Jean-sur-Reyssouze;46.41945156051019; 5.063429610497037
Ontex;45.762782776821574; 5.826914227814464
Saint-Alban-de-Montbel;45.55519727271266; 5.785573999241749
Saint-Cassin;45.54598260114467; 5.890194310717048
Talissieu;45.869627183245115; 5.721800331594886
Marlieux;46.074521278221546; 5.094760960367092
Miribel;45.837644086502074; 4.931819337514231
Pailhès;43.10737986789868; 1.42139735498395
Lanta;43.57035968264052; 1.6594304531754205
Sinard;44.950507267515164; 5.663199621632733
Saint-Lizier;43.00435290272065; 1.1283881373957743
Barbazan;43.03565943342321; 0.6154224877202488
Martisserre;43.39475803726813; 0.8778599913290395
Savarthès;43.11440850330595; 0.803403381608034
Armous-et-Cau;43.57388200464263; 0.2090187541050124
Pontcharra;45.443739529545695; 6.013915909507274
Paris;48.8970655344566; 2.3898546493982584
Erbray;47.685057008438434; -1.3879935587762549
Pontchâteau;47.405298978419985; -2.068105236234948
Machecoul-Saint-Même;47.029501291187884; -1.7841952490429556
Saint-Vincent-des-Landes;47.67532817164987; -1.465479320656634
Paris;48.875782663923395; 2.3810711581846515
Tardets-Sorholus;43.1321659648912; -0.8141422085341583
Le Mesnil-sous-Jumièges;49.400601536413475; 0.8565546338463561
Salles-sur-Garonne;43.27955671772871; 1.1713836140082388
Sorgeat;42.72959920226239; 1.8484626606833476
Maurens;43.59722269099412; 0.9175498891961619
Tourdun;43.54600007278053; 0.14354952914873545
Saint-Jean-de-Galaure;45.21153486461125; 4.927866072836314
Leigneux;45.736605376701796; 3.9794859968534206
Sore;44.28808649726133; -0.5804642714044672
Argelouse;44.37369292645466; -0.6472721139807156
Arue;44.07477517340926; -0.31395654921897304
Aujan-Mournède;43.385987414568895; 0.512241057191819
Bourgoin-Jallieu;45.598477521547984; 5.246052961752095
Oinville-sur-Montcient;49.02721463545729; 1.8543592682462575
Bournezeau;46.63156606657928; -1.1329904015663717
L'Abergement-Clémenciat;46.16193961730848; 4.928503018561773
Arbent;46.27597902352291; 5.660782892249448
Saint-Haon-le-Vieux;46.07677210925967; 3.922318771558863
Saint-Jean-Bonnefonds;45.45251748177644; 4.459651524341295
Saint-Laurent-Rochefort;45.77318506535599; 3.92722064381928
Nerville-la-Forêt;49.08980482589645; 2.2849042348071604
Laguian-Mazous;43.42651015287941; 0.2568402428278811
Mirande;43.51662467260593; 0.4314280228713424
Vic-Fezensac;43.74441114684528; 0.3083909983379102
Ségoufielle;43.63191302730261; 1.1419654847471516
La Chaize-le-Vicomte;46.70082825766213; -1.259506759231345
Cachen;44.054946395690955; -0.3843128274287947
Les Avanchers-Valmorel;45.4877493210389; 6.464913726999376
Lencouacq;44.118393506938254; -0.3861238792662872
Lencouacq;44.1236005008971; -0.38224978128776854
Doix lès Fontaines;46.43320578802719; -0.8299953251178535
Paimpol;48.764071201247795; -3.042068490312649
Chéraute;43.23445454943704; -0.8698941672274941
Gueugnon;46.60812949818401; 4.0742311734535575
Amilly;47.96834361108178; 2.789756955238174
Licq-Athérey;43.047172593951714; -0.885789886431469
Miramont-Sensacq;43.59279507662953; -0.30591989183290114
Tournus;46.57036256705413; 4.886432724693552
Châtenoy-le-Royal;46.781910720407126; 4.793386646361777
Toul;48.69160381797508; 5.915075792910428
Moyenmoutier;48.380127790909086; 6.871057043072795
Barcelonnette;44.379402109821235; 6.6284277843856385
Villemandeur;47.993613619983506; 2.717028228987457
Mâcon;46.28724225482942; 4.812445556380844
Saint-Martial-d'Albarède;45.329976904020576; 1.0445592111422761
Gy;47.38804627981706; 5.792980784457975
Saint-Denis;48.945624028061765; 2.3436194627103686
Asnières-sur-Seine;48.91360941271052; 2.3033692904656515
Paris;48.8377767347352; 2.2958500814957152
Paris;48.88967312786968; 2.3768754979814712
Paris;48.86813307516053; 2.3990333677317506
Levroux;46.9731857328496; 1.5995387172975042
Sainte-Marguerite;48.27407542579996; 6.96640483295698
Villeneuve-sous-Pymont;46.69234826195823; 5.563068418799872
Les Rousses;46.50184066096095; 6.026518845362117
Saint-Étienne;45.443709864494416; 4.3764711820658775
Lentigny;45.98772125734203; 3.9797410807504936
Montbrison;45.595716636249385; 4.080927559371094
Balma;43.636230154271466; 1.5025467088029063
Jegun;43.75921072464589; 0.48099161115598255
Avrillé;47.52005808370048; -0.5981870063275907
Seyssinet-Pariset;45.18038398785445; 5.699918788243933
Allemond;45.205068036767344; 6.043835262278976
Tarascon-sur-Ariège;42.85126744828303; 1.5976342076203962
Vizille;45.078976441561025; 5.780317533435665
Voiron;45.376882282835545; 5.570819744528491
Saint-Jean-de-Bournay;45.50104622502073; 5.1161000379464685
Saint-Nabord;48.072692074419905; 6.604924007033114
Le Thillot;47.88681334921998; 6.752609168842606
Theillay;47.316577026479145; 2.045190078097613
Mirande;43.520635775667316; 0.4176903896314119
Étoile-sur-Rhône;44.82698147787242; 4.930607786588039
Saucats;44.61516637858137; -0.6161555095902835
Comines;50.76437130003057; 3.01876640053946
Montmirail;48.87078380689194; 3.554859340704168
Châtillon-sur-Marne;49.090885995763955; 3.7635857830297317
Saint-Quentin-Fallavier;45.64087389387518; 5.127114235184528
Le Controis-en-Sologne;47.43037622055434; 1.4471782818083383
Suèvres;47.67616717776419; 1.4473512797794645
Anould;48.18507253755843; 6.960292813951922
Rouillac;45.7642354529503; -0.07479206456946895
Prayssac;44.502539960982496; 1.1743009814405483
Benet;46.3867909660377; -0.6144963009300312
Moirans;45.32813750538352; 5.554342088637373
Vaureilles;44.432909565760724; 2.1936198038339683
Issoire;45.55551194983711; 3.25374979762603
Enval;45.88923370978831; 3.064985987193387
Trégueux;48.49054426350796; -2.7713095903848837
Saint-Germain-Laprade;45.052082254879934; 3.963477503646008
Genay;45.89926807419898; 4.818781801363524
Saint-Lary-Soulan;42.81466793892093; 0.3170665084126029
Cambo-les-Bains;43.36497607796057; -1.3673954568852724
Brest;48.38580849739167; -4.4711304248938255
Yquelon;48.84088853016682; -1.5449674841304797
Chancia;46.34772064600529; 5.632587523051627
Pré-en-Pail-Saint-Samson;48.46171875177375; -0.2213660758078275
La Souterraine;46.245950338230195; 1.493010366951
Saint-Pardoux-d'Arnet;45.8684029013076; 2.3415135335397426
Canteleu;49.4196660717193; 1.016273997561281
Dieppe;49.91495663811151; 1.0996680048077558
Grand-Couronne;49.34945506076287; 0.9916687189304203
Réalmont;43.77167966072673; 2.196778246174495
Verfeil;43.629853886911505; 1.6708128700726874
Megève;45.85835276971657; 6.613570137172004
Fère-Champenoise;48.767148326682594; 4.010453071644617
Fismes;49.306275098243205; 3.6910797587418243
Dunières;45.21523382545956; 4.337097359550463
Revigny-sur-Ornain;48.81814043858259; 4.994952831536406
Saint-Martin-Boulogne;50.716359795640955; 1.6337178831975572
Touvre;45.67021112615001; 0.2436401016055422
Paris;48.8490459001701; 2.3534028812646826
Hémonstoir;48.172349928084735; -2.8774031007080527
Champigny-lès-Langres;47.88228300920331; 5.3405323683699155
Dijon;47.30797339835643; 5.03450194814556
Saint-Amour;46.439857659265805; 5.332090469940922
Vence;43.71145233032154; 7.105185395073211
Saint-Étienne-de-Montluc;47.275656595822674; -1.7294162588477933
Aube;48.74261407405213; 0.5552087203224575
Clans;44.00289869219561; 7.137522346675674
Saint-Céré;44.85344220543334; 1.8748420843232774
Marck;50.921619547824584; 1.9134892856485017
Vernou-en-Sologne;47.49262476150884; 1.6831107556206684
Selles-sur-Cher;47.28594648356584; 1.5490814247617088
Scaër;48.04660069675138; -3.7234302069467233
Beauvoir-sur-Mer;46.925118875219866; -2.0416281079753014
Paris;48.861133064331646; 2.357624111396507
Paris;48.88358952330712; 2.317743830901462
Loudéac;48.16820143056605; -2.748001037139276
Bailly-Romainvilliers;48.852969276184375; 2.7983267092976156
Pécy;48.658208617248086; 3.0699735250638476
Vendargues;43.65516749714523; 3.960712358971534
Condom;43.94611057106945; 0.373077802059728
Sully-sur-Loire;47.75793661179419; 2.3578919761805124
Bohain-en-Vermandois;49.98011247191308; 3.458294199507501
Morchies;50.12612700926365; 2.952460975630597
Pornic;47.130138423956566; -2.0941536301677726
Valence;44.88984817684804; 4.884013089907938
Montélimar;44.56135873481284; 4.740129998579161
Rouen;49.43317137622761; 1.089631347692337
Rethel;49.51374632198167; 4.3440990925992145
Balaruc-les-Bains;43.445762977385215; 3.7074392509714635
Ramonville-Saint-Agne;43.55373774923268; 1.4798178125132275
Toulouse;43.61698060005446; 1.4181097695966969
Mende;44.52858399728689; 3.4975932468521793
Sévérac d'Aveyron;44.326622505401176; 3.055202320774568
Saint-Chély-d'Apcher;44.795217562584014; 3.278832851715055
Herblay-sur-Seine;49.00443206079819; 2.173070890422475
Les Salelles;44.426496830550505; 4.109119652022263
Saint-Gravé;47.72725059511868; -2.2859142650347075
Talizat;45.10279249180954; 3.0342502027864735
Saint-Savournin;43.41538099682778; 5.547922553415405
Sainte-Gemmes-sur-Loire;47.44295747548561; -0.5550934444767163
Laval;48.04116749509959; -0.728114927470182
Sens;48.21544915282078; 3.314758612438811
Illzach;47.768978837528756; 7.380964315404769
Louslitges;43.583955588108225; 0.16372986489181288
Carmaux;44.05126867939775; 2.145724316400539
Couchey;47.255147083713815; 5.000850968775411
Labégude;44.650429735978946; 4.3668618016913845
Villette-sur-Aube;48.53318906318201; 4.113710912488861
Albertville;45.66547167397026; 6.3670731006889
Caen;49.18172332589195; -0.3460058532885505
Saint-Coulitz;48.17536690234061; -4.062234423160715
Charleval;49.38011814380759; 1.373060504675294
Noyal-Pontivy;48.067753112397135; -2.855690187120815
Châteaudun;48.067553671955814; 1.3474004956987922
Saint-Julien-le-Petit;45.81957148166053; 1.7137977551377523
Marseille;43.33748171842692; 5.43144612434387
Sierentz;47.64862383496308; 7.473287559337538
Villenouvelle;43.446527974936934; 1.6785825143029065
Le Guislain;48.9657643727694; -1.2238248400456775
Vesoul;47.621581232896936; 6.145069747208845
Prémery;47.18357975792992; 3.3590449946830883
Craon;47.84465128730595; -0.966543219015234
Ernée;48.29044586184463; -0.9251579274598357
Évron;48.15758131476661; -0.41476218886784283
Lassay-les-Châteaux;48.42772055403174; -0.525485607391035
Saint-Georges-sur-Loire;47.387033752668394; -0.7568805767756512
Vitry-sur-Seine;48.80545496309905; 2.406433895649427
Besançon;47.22711484846667; 6.044698335798768
Besançon;47.26661007133064; 6.053747533782698
Pontarlier;46.911487643863026; 6.357651642466985
La Tourette;45.42934335387192; 4.071060829494313
Anduze;44.04139199710907; 3.9852341384305885
Saran;47.93687833858405; 1.8903656556906323
Bignan;47.87532551648083; -2.7923533373307836
Pont-de-Roide-Vermondans;47.380081636158046; 6.769276934783533
Reiningue;47.75359264257746; 7.257392896360064
Pessac;44.79622986301018; -0.6106349945182599
Libourne;44.93799616696443; -0.23084686367750784
Les Angles;43.94418540650326; 4.781373308789948
Saint-Martin-de-Crau;43.62498984353969; 4.805875430365138
Villers-Saint-Sépulcre;49.358400365101105; 2.200730036532732
Frasne;46.87211724066876; 6.160723745643791
Roissy-en-Brie;48.78036286087688; 2.6503972069075865
Sarre-Union;48.933980942266; 7.0599694645888915
Pont-Salomon;45.334495616792594; 4.243355336876337
Barre;43.729265124909986; 2.7974023575744975
Beauchamps;50.00730791933191; 1.52484615005511
Plessis-Barbuise;48.561251426334756; 3.592026901056549
Saint-Parres-lès-Vaudes;48.174797910739; 4.204398377904992
Châbons;45.42854353449985; 5.432735247784359
Crevin;47.93966347300002; -1.6410188164259447
Montgiscard;43.472575057531245; 1.5894295847703415
Loudenvielle;42.78582483688122; 0.4103544982121917
La Mure;44.913834969581316; 5.783254763485856
Vrigne aux Bois;49.73479923021371; 4.841092691535369
Mondelange;49.261840150203575; 6.175788285482848
Forbach;49.203722638351685; 6.908649800572261
Châtel-Montagne;46.12649319991341; 3.681255177028133
Couleuvre;46.6757847286738; 2.89537497492844
Antibes;43.58423073008328; 7.101170646224302
Grasse;43.66083967142946; 6.934473298768414
Saint-Pons-de-Thomières;43.497311654920374; 2.7888835395410334
Saint-Calais;47.91832511631812; 0.7298986911039752
Yzeure;46.53519035515314; 3.362270024983439
Lapalisse;46.24149181037295; 3.634880727336846
Grand-Aigueblanche;45.51514566427615; 6.489925619748103
Sainte-Geneviève-des-Bois;48.62737534877767; 2.3490468617018374
Saint-Pons-de-Mauchiens;43.5119107253183; 3.4934591497599055
Lodève;43.72311383270126; 3.3135247739628824
Niort;46.34780210997555; -0.43294461609028684
Clermont-Ferrand;45.78925922297396; 3.056305749334454
Sallèles-d'Aude;43.28563164765292; 2.9144465656724674
Limoux;43.06139200770587; 2.2305725431983805
Narbonne;43.1693938358102; 3.0033612190694114
Pontpoint;49.310872359725174; 2.6757829320743487
Arles;43.41678910284287; 4.730985236844649
Raizeux;48.62584875314225; 1.6865863300574342
Boinville-en-Mantois;48.93254094935882; 1.7368907550445403
Biganos;44.63694707173045; -0.9719888516628361
Mérignac;44.837996351826156; -0.6112438679584529
Bourbourg;50.96194635252355; 2.197267645036012
Faux-Fresnay;48.6516208825722; 3.977531574324029
Val-de-Reuil;49.27690262791777; 1.1976556995003065
Arcachon;44.6568413630926; -1.1636097024808985
Le Plessis-Robinson;48.77314691639702; 2.2454504459618443
Ivry-la-Bataille;48.890763583282144; 1.4383484522824823
Lyon;45.77590259185381; 4.830336531963236
Chauffailles;46.21121084207241; 4.316866744792903
Digoin;46.48985001840144; 4.003740215493805
Niort;46.3073972236845; -0.47468075403538307
Jardres;46.56554876293504; 0.622637669719542
Saulieu;47.27415056562208; 4.223771635690362
Roquefort-la-Bédoule;43.25140702774432; 5.580326712668106
Bouc-Bel-Air;43.423641051200974; 5.391065148930769
Menton;43.784015979904275; 7.494151645215523
Plougastel-Daoulas;48.376694344572044; -4.350654104829154
Le Faou;48.303799328886754; -4.143767320896406
Reilhanette;44.164531492263876; 5.427685362828233
Thorigné-Fouillard;48.13964725633872; -1.5852058644349056
Saint-Germain-lès-Arpajon;48.59708574581354; 2.254029144984969
Donges;47.31353720429416; -2.072943834717616
Haute-Goulaine;47.18823350858289; -1.4452798542044432
Verneuil-l'Étang;48.64416204120241; 2.8138059926824943
La Grande-Paroisse;48.389700728966396; 2.9343201058618664
Lésigny;48.73734866122145; 2.611307002109995
Brest;48.39117228186004; -4.539010965728055
Bordeaux;44.86250948071238; -0.5763057483353546
Mulhouse;47.74928513707569; 7.35228524157314
Hottviller;49.06352805632878; 7.385126839146229
Onet-le-Château;44.38772781606392; 2.6076698715505233
Onet-le-Château;44.358613790590816; 2.6067839416049337
Rennes;48.10633833542516; -1.704973726804319
Évaux-les-Bains;46.18493286361345; 2.4784876696494207
Gouzon;46.185776556717535; 2.24111181028343
Guéret;46.182547732359865; 1.889925706133675
Vincennes;48.848832355745664; 2.4246852316654324
Gourdon;43.721204915425126; 6.991955657621971
Rostrenen;48.24692069258289; -3.323611163206381
Arles;43.66220844117398; 4.648641229057459
Carpentras;44.06241546807317; 5.0478620517944455
Roullet-Saint-Estèphe;45.60949798148815; 0.06416016738166674
Sospel;43.882575166512886; 7.477344086947404
Roinville;48.442918310438145; 1.7762815986508447
Orchies;50.46552504780588; 3.2372431805823556
Ambert;45.57332874536644; 3.7464478953090765
Pouzol;46.10264541781225; 2.931345321680896
Triel-sur-Seine;48.96670737683156; 2.0128169525552373
Lure;47.67323817217775; 6.505366881976142
Châtillon-en-Vendelais;48.2262000932918; -1.2118836735569536
Drouges;47.8909194664321; -1.262292827001561
Besse-et-Saint-Anastaise;45.49691992496341; 2.8743256079178687
Halluin;50.7771125066622; 3.1147683404530313
Courmelles;49.35572777069487; 3.3194584766506727
Casteljaloux;44.31889976434834; 0.09477597144636296
Doudrac;44.66076459938722; 0.6693072509329964
Baudemont;46.29645503116066; 4.299719401298791
Mézidon Vallée d'Auge;49.06144135263126; -0.07534362109754598
Reventin-Vaugris;45.49225042460193; 4.827834139571022
Soulac-sur-Mer;45.5046016564873; -1.1140411432010195
Rivesaltes;42.80101075584965; 2.891272159662832
Trouillas;42.61183305511544; 2.8230817875688268
Abondance;46.293520271663006; 6.762373964615775
Saint-Jean-d'Illac;44.8142533180889; -0.8566909624572486
Castellane;43.845347996050954; 6.537553399198794
Saint-Étienne-du-Rouvray;49.38587701783767; 1.0606599262928669
Touques;49.345516465164145; 0.09602062723743224
Sarlat-la-Canéda;44.87321888423197; 1.210830069901765
Le Havre;49.49550341906959; 0.1796514433931652
Auxonne;47.188793315713795; 5.386292648993959
Lizy-sur-Ourcq;49.028331464911126; 3.0132568112316718
Trie-Château;49.28546210212093; 1.8278864524020704
Beauvais;49.41460840878728; 2.115716167144513
Viriat;46.215263455931975; 5.206156525356406
Vire Normandie;48.8527598722636; -0.8619072200070441
Châtillon-sur-Seine;47.85289658489464; 4.5597927690795625
Quimperlé;47.8517090420371; -3.5842130623076183
Melgven;47.910736932323225; -3.833347798049432
Fontenilles;43.56539903589266; 1.198239067788238
Toulouse;43.56745556251867; 1.4210763875740215
La Grand-Combe;44.20105352464244; 4.043550706369848
Thionville;49.346625199400826; 6.15745216284252
Longuyon;49.44208980922053; 5.603016718895961
Arvert;45.74945915304934; -1.14744426363923
Martigues;43.409673137234705; 5.047408996659334
Venesmes;46.858265790769806; 2.2942144851683706
Martigues;43.38410569113935; 5.024398895465189
Mallemort;43.73022120135769; 5.186287457390161
Carbonne;43.28456847083855; 1.2173551872022939
Sury-près-Léré;47.50281499657251; 2.8817796312931754
Saint-Médard-de-Mussidan;45.02738869873551; 0.3371365932168472
Château-Arnoux-Saint-Auban;44.0736996067354; 6.00286877651554
Ydes;45.35340887239768; 2.4463381739526047
Saint-Hilaire-des-Loges;46.46776425912176; -0.6591834486918128
Saint-Martin-de-Fraigneau;46.42900561873799; -0.7444784457828849
Moustey;44.363647443216514; -0.7485919513234074
Parentis-en-Born;44.33563785695057; -1.0850115855664437
Pontenx-les-Forges;44.223653117074875; -1.0913684858550181
Saint-Laurent-de-Gosse;43.52187412403299; -1.2815463172598092
Saint-Germain-sur-Renon;46.08185133323429; 5.049087798575908
Sainte-Hélène-du-Lac;45.47132398430268; 6.038631609920383
Villard-sur-Doron;45.7380092418842; 6.515469308034632
Paris;48.875767173935614; 2.381060081342442
Servignat;46.43161216546034; 5.065548178704767
Laiz;46.24703405424972; 4.910337477976871
Ercé;42.84086098833834; 1.29468857213403
Foix;42.97773022651599; 1.6176551777985915
Sabarat;43.09508975988711; 1.399543888272123
Rives-du-Fougerais;46.623834515489065; -0.813379913868513
Bruguières;43.751871614330426; 1.4195840424470503
Castelnau-d'Estrétefonds;43.7939742139637; 1.3667504656491807
Saint-Jean-de-Verges;43.02343877424357; 1.6210715463641663
Cazaunous;42.988095675923425; 0.7301214714958384
Cordemais;47.30812907332059; -1.8483919999421616
Saint-Jean-de-Galaure;45.20521412845518; 4.8934902254941965
Saint-Germain-du-Corbéis;48.409393282926985; 0.057861245690304194
Canenx-et-Réaut;43.99973403330336; -0.45798781542133904
Saint-Alban-des-Villards;45.311022874508794; 6.257104288241689
Niévroz;45.8277065561355; 5.056847064418812
Peyzieux-sur-Saône;46.12592645534032; 4.8225217122109285
Paris;48.842642774194324; 2.372479420598192
Paris;48.8704213201604; 2.304683372654143
Paris;48.86993526781596; 2.305545647257708
Paris;48.8783707008971; 2.296036174357072
Maurrin;43.82339508558967; -0.3689918547010018
Messanges;43.7984437117534; -1.3873668110157522
Mogneneins;46.142573140711974; 4.8278721473758015
Rieux-Volvestre;43.23360797921086; 1.1579120186071985
Saffré;47.51058396280738; -1.5069697859758737
Lézigneux;45.55171802718543; 4.0395623748452305
Saint-Ouen-l'Aumône;49.04363820752403; 2.142204185591437
Arengosse;43.991978064483014; -0.7949000092631059
Marnaz;46.06856090711498; 6.5172325737467425
Amplepuis;45.97396167058439; 4.31235010557169
Castelnau-d'Estrétefonds;43.79361402341359; 1.3768023519134827
Bassoues;43.583011863286295; 0.2560715143559626
Caillavet;43.70157394046399; 0.3240300405133816
Cazaubon;43.937695152779916; -0.05970683530810499
Pissos;44.3312806231152; -0.8043805816821676
Ladevèze-Rivière;43.5460905907375; 0.08101787472549019
Montréal;43.947896930031455; 0.1582160246863436
Auch;43.68212776788123; 0.5625424000548706
Villerest;46.00357620795105; 4.0238542311332175
Saint-Antoine;44.03420379490015; 0.8072487215202531
Vic-Fezensac;43.730219445128085; 0.3373762981503193
Notre-Dame-des-Millières;45.62245354976659; 6.3410615456092385
Les Avanchers-Valmorel;45.487723321917166; 6.4648360138740015
Escource;44.1673115866476; -1.031267977178301
Les Magnils-Reigniers;46.4707332032476; -1.2267060436508546
Magescq;43.79495218364005; -1.2083422037688722
Belle-Isle-en-Terre;48.5581915222437; -3.38292615779096
Villeneuve-sur-Lot;44.40224721500525; 0.7229492231391117
Kingersheim;47.798891021902875; 7.325898097258809
Labouheyre;44.201557995608894; -0.9216263099415596
Champigneulles;48.72225124611266; 6.171612181240115
Laxou;48.694199828946424; 6.1219868863925715
Charolles;46.44414752785362; 4.272490184250142
Moussac;43.983315909150626; 4.235431610830001
Arc-lès-Gray;47.454569251367815; 5.592395984570109
Mirecourt;48.30272906727268; 6.145970111744093
Pouxeux;48.11124018270961; 6.564229101124506
Marzens;43.67387763220179; 1.8266965766201102
Saint-Paul-lès-Dax;43.7263292279978; -1.03918106238464
Argenteuil;48.93538661315499; 2.2400866236858437
Versailles;48.791876382615314; 2.148291426283495
Paris;48.85625995994448; 2.2723390808476993
Châteauroux;46.800423155032114; 1.678272119993613
Montgivray;46.58397579895369; 1.9714576161011723
Déols;46.823382043378594; 1.735275976939236
Millery;48.80715006644753; 6.119543387448094
Roissy-en-France;49.00741047167136; 2.5389712408359166
Montréal;43.95491274324861; 0.19879305943186368
La Chaussée-sur-Marne;48.83968956059871; 4.511956738271271
Miolles;43.87382727367964; 2.5669850418994162
Bléré;47.31027363281562; 0.9653038959773159
Vendin-le-Vieil;50.469441470592784; 2.864068676765392
Périgueux;45.19343120355513; 0.7014188893999823
Figeac;44.60705017388231; 2.00014048640707
Salbris;47.41809013537574; 2.06424983428884
Lamotte-Beuvron;47.60605375922552; 2.037748674071455
Sallanches;45.95652535249463; 6.6328117658796595
Eslettes;49.53491983504566; 1.0475923497677173
La Vieux-Rue;49.500106674134344; 1.2580938565405513
Cléon;49.316314245181815; 1.0404503804022869
Saint-Jean-de-Luz;43.39731373853742; -1.6423012527601062
Saint-Sever;43.76397390663459; -0.5258372653500577
Meylan;45.20624299505751; 5.787595356898165
Champniers;45.69476988331739; 0.18552090768007745
Anstaing;50.60698955024186; 3.1838878762081118
Jarnac;45.69576282254936; -0.17253356973670167
Civrieux-d'Azergues;45.85731987415243; 4.704185515310209
Sorcy-Saint-Martin;48.709075515831444; 5.612191043704341
Accous;42.94410173253534; -0.6111068688162308
Aragnouet;42.788157111689294; 0.2300212725809858
Lannemezan;43.11338497221414; 0.3928419991478479
Saint-Jean-le-Vieux;43.17810847067487; -1.2188406447707973
Gueures;49.83788607294868; 0.9587248964175873
Rouen;49.43666683732955; 1.0636829691436893
Arbois;46.90117726071844; 5.753641065463066
Tavaux;47.02214762539778; 5.3845976173393035
Meslay-du-Maine;47.94345833796179; -0.5485780272746894
Saint-Éloy-les-Mines;46.14280364000957; 2.8258851592599457
Boussac-Bourg;46.35365870830317; 2.2227832800172154
Vallon-en-Sully;46.53670625322696; 2.645005834502849
Saint-Étienne-du-Rouvray;49.371000215383084; 1.1081194792190472
Le Grand-Quevilly;49.420019721956145; 1.0227963281120456
Bordères-sur-l'Échez;43.267856717854414; 0.05869084178614126
Saint-Antonin-Noble-Val;44.16087532708687; 1.7236350124272515
Le Plessis-Belleville;49.09712564297092; 2.7615325072176002
Saint-Malo;48.621276751668056; -1.946251808219727
Annecy;45.88709164059825; 6.139424841802921
Motz;45.933000590982125; 5.842866312580198
Loudes;45.10779697104103; 3.7805272308688833
Gardanne;43.463765091253954; 5.468373100877314
Le Montsaugeonnais;47.68857027028554; 5.279635981594017
Castelnau-Montratier;44.30157093397431; 1.3155505806247971
Condé-sur-Suippe;49.42114371956743; 3.9553075874124555
Tours;47.43130019578973; 0.673932076045509
Saint-Raphaël;43.42939655501773; 6.808919600333475
Plémy;48.322857465135414; -2.649893233343155
Chartres;48.440469386444754; 1.5198709572068063
Nantes;47.18929958911813; -1.5158531045196513
Les Ormes-sur-Voulzie;48.46528383911291; 3.2259258613623354
Nogent-sur-Vernisson;47.847566026306616; 2.734799432732473
Pithiviers-le-Vieil;48.16881697877179; 2.2221681325851996
Vénissieux;45.71590469911781; 4.906747039783995
Carros;43.802366492552714; 7.191277374583282
Saint-Laurent-sur-Sèvre;46.941612822276454; -0.8964852707228728
Terval;46.647526367802314; -0.7258436943098997
Paris;48.87663262082109; 2.293292625677041
Nantes;47.24935315638811; -1.5207742140028744
Merdrignac;48.18517534264522; -2.4178692926246614
Dammarie-les-Lys;48.530185115887754; 2.639145847240981
Melun;48.55760899444518; 2.662734310140642
Juilly;49.03296777731338; 2.707873669957114
Bressuire;46.833604238843016; -0.4682346004704416
Boulogne-sur-Gesse;43.29218913275073; 0.6655209855042465
Signac;42.91142254239779; 0.6370926285559201
Tergnier;49.654684503656384; 3.3260153259001264
Camblain-Châtelain;50.48126811110369; 2.4270836612101996
Longuenesse;50.7417044328735; 2.2465667474262876
Thouars;47.00032677131888; -0.2027054105239062
Beausoleil;43.74148301616737; 7.419089668816365
Les Herbiers;46.8820544653074; -1.019343358060745
Taninges;46.107619368328926; 6.585463642287819
Bozel;45.43954786310185; 6.647078615671757
Faux-Fresnay;48.648478347716264; 3.976561473924197
Beaucouzé;47.462700104077264; -0.6318475976779026
Vineuil;47.57531277237138; 1.370976298470636
Trans-en-Provence;43.509675810306916; 6.47507694607149
Le Val;43.43549059575888; 6.072139674371108
Roussy-le-Village;49.44510317593452; 6.172305420762994
Cagnes-sur-Mer;43.66131506100178; 7.130117958800685
Châteaubriant;47.71396816540611; -1.3609935192934028
Craponne;45.745663480216564; 4.728379698184686
Vestric-et-Candiac;43.745929274560005; 4.2471367742797925
Argentat-sur-Dordogne;45.10470132447218; 1.9527927697764875
Léguevin;43.5980749255821; 1.2732080354280857
Drulingen;48.85889539162399; 7.203369189972243
Givors;45.576315096771445; 4.78216962384282
Cram-Chaban;46.202640806020895; -0.7052905042378692
Conques-sur-Orbiel;43.28595977856929; 2.362473961802975
Châteaurenard;43.864544348294004; 4.856505786772507
Nice;43.707986590923156; 7.285377719713832
Valderoure;43.78816058777388; 6.648267298596609
Le Lude;47.65175966958476; 0.15164693633184193
Saint-Amand-les-Eaux;50.4337418183104; 3.4356323645659397
Neulise;45.9112036718482; 4.17806588381437
Saint-Étienne;45.41382390205241; 4.404264367398067
Le Havre;49.52684734954287; 0.10463005412146098
Rungis;48.747261906164894; 2.368753164764561
L'Isle-Jourdain;43.601436175321055; 1.0900350825906058
Champvert;46.84148070105955; 3.4877341778730386
Avesnes-le-Comte;50.27253733164685; 2.512964624774284
Lectoure;43.936045726360504; 0.6031056019565283
Ambazac;45.95057878055505; 1.3480216402438985
Argentan;48.742866490278615; -0.009618374056384691
Honguemare-Guenouville;49.380372767084204; 0.8331050044997672
Pouldreuzic;47.96141274802607; -4.3411358080816
Ranguevaux;49.308747857067786; 6.056265949591221
Verrières-en-Anjou;47.506231091269235; -0.4802909565567599
Sury-le-Comtal;45.54017145158679; 4.201064423455732
Romainville;48.89522471749891; 2.437178420539892
Les Villages Vovéens;48.27292225823874; 1.6390380981623685
Montagny-les-Lanches;45.86445877560091; 6.057711814905355
Monceaux-en-Bessin;49.259980647035384; -0.6912597950766263
Boulogne-Billancourt;48.82741417252457; 2.2518884557749566
Cergy;49.050135234355395; 2.0615321770161157
Lorient;47.7564435970444; -3.3560395654425936
Plouharnel;47.610192189096914; -3.1243479164939965
Dreux;48.74526218986435; 1.3822678116387024
Saint-Yrieix-la-Perche;45.53657624039142; 1.22124291422682
Bart;47.48607871911202; 6.77015837495163
Clamecy;47.45229126430173; 3.5091192429077864
Gorron;48.403865585364755; -0.8259156799931386
Diges;47.720409877215246; 3.3483921087078223
Villeneuve-Saint-Georges;48.75458781794564; 2.4460755561574636
Aumale;49.76759558475602; 1.7592398165104841
Avèze;43.979683532225316; 3.599590701018453
Épernon;48.591885245117716; 1.6858826694874651
Hazebrouck;50.713295359346574; 2.536524160681582
Moulins-sur-Orne;48.75881406258448; -0.043006301155376854
Bangor;47.322562362973756; -3.2010111921324182
Avion;50.411958704213546; 2.8019556965335135
Biache-Saint-Vaast;50.315376772512806; 2.945435776405955
Carvin;50.47115619975575; 2.9553940884283683
Ailleville;48.24884903615869; 4.689593006481276
Nangis;48.56900686188846; 3.0013045539915284
Volstroff;49.30485357422084; 6.24240372669484
Waldighofen;47.55266136983266; 7.308464673215491
Caudan;47.78057049134018; -3.3228311246116897
Le Neubourg;49.145987877434266; 0.8945942256703298
La Madeleine-de-Nonancourt;48.77429581257842; 1.2156518924687738
Breteuil;49.627513015802336; 2.308303360971039
Gauville;49.771307852076696; 1.781695444565499
Avreuil;48.03474770442133; 4.005765543610819
Allouagne;50.51933604962196; 2.4802380604255743
Vironvay;49.2000054804759; 1.212101002584976
Avignonet-Lauragais;43.36267155321679; 1.7939118840352448
Castres;43.58478017623791; 2.2416146698102732
Duvy;49.234680385024554; 2.8486899146771623
Brugny-Vaudancourt;49.00562733095758; 3.8998270222548337
Coullons;47.62277697757042; 2.514363770429169
Daux;43.67965767202894; 1.275785840374576
Finhan;43.90767325577774; 1.243427359434325
Graulhet;43.76773334299127; 1.9954133022471108
Échirolles;45.14793582058677; 5.701341492001067
Phalsbourg;48.77402619503098; 7.2719119251950275
Le Puy-en-Velay;45.010614497352336; 3.8850574152410533
Le Donjon;46.36228187940268; 3.7984064836676374
Seclin;50.54376981907376; 3.044656073646456
Roussines;46.43838217581221; 1.3560667762224727
Florensac;43.38659444726557; 3.4808890133293904
Fondettes;47.40708298146265; 0.6246290738423462
Crédin;48.02320687760438; -2.7545434086133462
Châteauneuf-sur-Loire;47.85922545275403; 2.1968807949244944
Chaingy;47.876086411416864; 1.805030986515647
Chécy;47.91632367988728; 2.0433850447096793
Châtillon-sur-Indre;46.99831353643067; 1.1756297995329787
Le Haut-Bréda;45.28008916187049; 6.074859217992993
Melle;46.213942496904664; -0.14249399201563015
Charlieu;46.15539304376228; 4.163272906518487
Firminy;45.37922286807311; 4.284245616969045
Moustier-Ventadour;45.40046848326102; 2.0754314967002263
Capendu;43.19047648092293; 2.5486161303586905
Narbonne;43.197026084946266; 2.9825796309607617
Soulages-Bonneval;44.677654365652884; 2.781491555499983
Clamart;48.78933910957484; 2.2662149485692424
Saint-André-sur-Vieux-Jonc;46.148041021123205; 5.177431950750877
Candé;47.55497181581518; -1.05468136739187
Guebwiller;47.89905847146389; 7.226121436597041
Sassis;42.871097777187565; -0.013775443818175387
Belin-Béliet;44.5195227226155; -0.7817086462098474
Sainte-Tulle;43.78688074458872; 5.773991027558386
Wattrelos;50.6998617178805; 3.2081469834200225
Cluny;46.427794736686025; 4.663217500902705
Saint-Pierre-d'Exideuil;46.149930123102955; 0.2600541244236611
Aubagne;43.285455256262445; 5.591695679723566
Auriol;43.36407624336247; 5.617561069519416
Entrevaux;43.95253462130012; 6.8461317921363145
La Chapelle-sur-Erdre;47.32160578577468; -1.579026258947458
La Celle-Saint-Cloud;48.84994514784552; 2.1100533925555456
Bussy-Saint-Martin;48.84131607620058; 2.6597266278242153
Le Quesnoy;50.265038925669465; 3.6500176579264587
Chambost-Allières;46.02987060416693; 4.497147270968797
Boulay-Moselle;49.1891814448131; 6.484757378381353
Limay;48.99077233566089; 1.751137252712628
Saint-Witz;49.09138713110332; 2.5288791263867236
Bonnières-sur-Seine;49.016478075257794; 1.5669805566503519
Bertholène;44.394522722421314; 2.7973350155387906
La Hague;49.65380104387885; -1.7517026092403196
Baraqueville;44.26891891110078; 2.4200306178239708
Pont-l'Abbé-d'Arnoult;45.819924845560166; -0.8471220766733876
Munster;48.03705866409854; 7.130602863836048
Ottmarsheim;47.77353208557584; 7.518451734913251
Rhinau;48.28314290185903; 7.674245996820977
Redon;47.675483426564355; -2.0635088885004937
Maen Roch;48.41717061930478; -1.387116045102354
Villemur-sur-Tarn;43.86961397473119; 1.499817687370747
Orignolles;45.20286679542008; -0.2178510342740098
Paris;48.891209075586; 2.3341314475923958
Cabestany;42.68611573874123; 2.9226873563446465
Céret;42.494828368895305; 2.727401803122717
Sévignac;48.31410876324311; -2.332000803428783
Bagnères-de-Bigorre;43.07448264440394; 0.15575955164441022
Avignon;43.94854939562008; 4.855116289238524
Beaumettes;43.857262303412554; 5.198477679744662
Plouisy;48.565550705944496; -3.1885818490317686
Belfort;47.63666174651642; 6.838770474977476
Raze;47.57361393414801; 5.982291633220396
Eybens;45.15389613902158; 5.752459156888146
L'Isle-d'Abeau;45.62821676768335; 5.212134665197419
Grenoble;45.196176948005814; 5.742281181751524
Baralle;50.2162291074121; 3.0691415700261095
Blancs-Coteaux;48.90285587105169; 4.018169021399644
La Ferté Macé;48.585009645129894; -0.3738728523102058
Saint-Langis-lès-Mortagne;48.504899177916776; 0.5454026405583102
Héricourt;47.57188499568031; 6.76150448797048
Saint-Jean-de-Monts;46.79399712377837; -2.054102139261711
Piré-Chancé;48.038153656907156; -1.382430837102825
Sequedin;50.62560527397475; 3.003637392495692
Saint-Étienne-de-Tinée;44.236505605862185; 6.949462208534885
Marmande;44.513901608944; 0.16855416675906348
Anglet;43.50467479858405; -1.4963889697626496
Hordain;50.260827915239396; 3.3401214218995317
Sinceny;49.59683757512219; 3.230916717418575
Soissons;49.394976657324655; 3.3468439573923914
Vaux-sur-Mer;45.660614631751145; -1.0598325910540136
Orbec;49.01793687434782; 0.3855888550034231
Béthencourt;50.13378116197084; 3.417386806260834
Maing;50.31217031486798; 3.505383010513578
Fougères;48.36843182014135; -1.1811741476288253
Le Meux;49.35834961798043; 2.753666553145921
Rue;50.276933590627046; 1.6853464824266797
Terrasson-Lavilledieu;45.13323262465771; 1.276169339217382
Le Cheylard;44.91148390205681; 4.442885245295454
Saint-Pey-d'Armens;44.85705215477154; -0.12256658163707224
Castelnau-d'Aude;43.2424903267593; 2.6761976660379196
Saclay;48.71981918675995; 2.2007213842120694
Courcôme;45.99090340178547; 0.19891514365428165
Perroy;47.38952855722263; 3.1728563013061555
Saint-Honoré-les-Bains;46.90708749946339; 3.8507958284264916
Vinzier;46.32490037434837; 6.5962582545092685
Bonneville;46.06774193578697; 6.392524941093404
Saint-Mayme-de-Péreyrol;45.02958140805516; 0.6697519841323974
Thiviers;45.40982072857211; 0.9010885673073068
Arnay-le-Duc;47.11997485580703; 4.482430095996644
Plouhinec;48.026430301342536; -4.503175267731868
Chevigny-Saint-Sauveur;47.29094329426403; 5.147552585539985
Concarneau;47.89482985096241; -3.8911092674254055
Douarnenez;48.07477945707932; -4.30968172393775
Blagnac;43.65357083085837; 1.3684162083806057
Errouville;49.41213478265709; 5.899717305602626
Aulnay;46.03311711914147; -0.3472022125561242
Guilherand-Granges;44.93467156517046; 4.859412632844435
Saint-Thomas-en-Royans;45.043283042651105; 5.299820506058493
Vierzon;47.215458561031575; 2.096081472337197
Septèmes-les-Vallons;43.39667945376441; 5.35368189689056
Laveissière;45.08294535304463; 2.7471562276784436
Lestards;45.57522411007543; 1.8402721748570363
Mehun-sur-Yèvre;47.1536626511626; 2.196766129016725
Ménesplet;45.00916724684125; 0.12850265105507558
Saint-Hilaire-de-Voust;46.58889058065979; -0.6422681977456631
Pechbonnieu;43.691512523331674; 1.4615035180751093
Lasserre-Pradère;43.63729420106366; 1.1500746537282107
Roquesérière;43.74153035634931; 1.6207596016685977
Saint-Pierre-de-Lages;43.5662868128012; 1.634678469584355
L'Hermenault;46.51195575983765; -0.8812478767077078
Labège;43.5259355350782; 1.5208738703194062
Paris;48.88790229813337; 2.3765994974885936
Saint-Vincent-de-Tyrosse;43.67167747137465; -1.3142921606519802
Chaley;45.95528269247434; 5.5345820610481695
Châtillon-sur-Chalaronne;46.103756985756974; 4.967226769132704
Chaveyriat;46.21371886716561; 5.05004843192937
Saint-Maurice-en-Gourgois;45.430155457425975; 4.205210759946619
Saint-Sixte;45.757617075694085; 3.9600075051464283
Unieux;45.41273994625383; 4.248644617278272
Replonges;46.29388369298263; 4.876410280324931
Viviers-du-Lac;45.640300567698866; 5.904138359106451
Yenne;45.71436843428493; 5.776284008523861
Saint-Ouen-l'Aumône;49.04033853399361; 2.1389199945733646
Montchal;45.82479345128575; 4.312715480345882
Thoirette-Coisia;46.27045950185435; 5.535628328121128
Aigueperse;46.277811586290596; 4.416566137976169
Le Breuil;45.90190023679935; 4.590125789201377
Poule-les-Écharmeaux;46.141897446911834; 4.494030995304044
Murs-et-Gélignieux;45.64158042270889; 5.654570759980849
Daumazan-sur-Arize;43.13822514380379; 1.3200563899100393
Ercé;42.8718786202273; 1.2731983116576093
La Bernardière;47.026443379929766; -1.2599394482951607
Buzet-sur-Tarn;43.76790600432221; 1.6424526565860542
Saint-Lizier;42.99359759535748; 1.1344878291277798
Ayguesvives;43.433810851785495; 1.5923611137758475
Grand-Aigueblanche;45.49664445835699; 6.51139040772257
Machecoul-Saint-Même;46.991762116014314; -1.9152433783264613
Aulus-les-Bains;42.7953979985973; 1.3153514294110045
Mano;44.431894841742; -0.6546247666401069
Maurrin;43.840116068866024; -0.38162109727942495
Les Mollettes;45.45989625615094; 6.051055045416911
Aime-la-Plagne;45.532730827995444; 6.5964573081186915
Chaillé-les-Marais;46.374434036508845; -1.037350469912927
Cremeaux;45.91080190202794; 3.9202339439989258
Fraisses;45.38154355291302; 4.264670048834166
Saint-Yaguen;43.90661038748136; -0.7076185102946102
Auch;43.688686312162645; 0.5876164673337556
Albon;45.22046885627038; 4.859705531328266
Saint-Geours-de-Maremne;43.70744374792987; -1.2278675034629358
Saint-Bonnet-le-Château;45.42403432557102; 4.074647618325344
Saint-Didier-sur-Rochefort;45.809414861703836; 3.8603927340791397
Saint-Étienne;45.437392259293226; 4.449682837896325
Saint-Jodard;45.88459729120643; 4.133167018258781
Grenade;43.77824812414661; 1.2621110668980506
Biert;42.89745076029545; 1.3259811354801816
Ponsampère;43.446039205847036; 0.36467272741034423
Cazaux-d'Anglès;43.64438406969103; 0.29157448163506805
Clichy;48.90149508234972; 2.294646686142146
Trensacq;44.2225203006229; -0.6542647585772209
Saint-Avit;43.93782935568513; -0.42260013621609316
Lannux;43.64740897574893; -0.22903654616853122
Manciet;43.833932767919904; 0.03276963611770739
Mirande;43.521879175494604; 0.4008352034732123
Le Houga;43.801353842310654; -0.20615707412093592
Ordan-Larroque;43.69179573065849; 0.47272347490078825
Sainte-Marie;43.66471906334049; 0.8634539536095498
Arue;44.05163707000056; -0.3424527648590002
Bascons;43.8445365117215; -0.42656118593497594
Cugand;47.04900149922548; -1.241872063382846
Saint-Julien-Molin-Molette;45.322826665496166; 4.633918813374664
Crozet;46.26740251331154; 6.01965923693124
Beaufort;45.72156445461067; 6.579740533615622
Champagneux;45.63817780713166; 5.686716748253227
Goos;43.72970218905817; -0.8979599745755557
Hagetmau;43.65176138308263; -0.5925990146224706
Saint-Quay-Perros;48.782684913744504; -3.456609372067049
Tombebœuf;44.500341631549894; 0.4445272901086244
Saint-Amarin;47.873900077508395; 7.024186605814976
La Ferté-Saint-Aubin;47.733456663261464; 1.9565069263135524
Linxe;43.907624274812235; -1.2321315191950484
Mervans;46.80357858795367; 5.181702846136091
Choloy-Ménillot;48.66347459361578; 5.827292775204651
Hériménil;48.57062276209344; 6.488751551489717
Tousson;48.35750344686853; 2.4446711946475337
L'Argentière-la-Bessée;44.790856155141995; 6.55921913823054
Moissy-Cramayel;48.609093341721305; 2.5842652405554296
Autun;46.95575961034681; 4.318078029150405
Besançon;47.234396583919796; 5.98346546356653
Saint-Vit;47.174296758343566; 5.791229326332255
La Flèche;47.70223535638383; -0.09155703254067994
Vibraye;48.06747425133985; 0.7280344507980746
Plan-d'Orgon;43.826131929649776; 5.018727649842128
Allos;44.274042748098296; 6.579358604457486
Pied-de-Borne;44.48112337102406; 3.980398031726456
Aytré;46.130251943069304; -1.0911798892902282
Paris;48.87238872532428; 2.3741493150188933
Plaisir;48.80546858848063; 1.942391662823273
La Rochette;44.57807533338326; 6.136150688973691
Paris;48.864301350608784; 2.3041020973938378
Fléville;49.31747297378733; 4.966124053546639
Saint-Michel-sur-Meurthe;48.32142321621104; 6.899472695932427
Cahors;44.44928986803994; 1.431194942652236
Tingry;50.60988058334125; 1.7399475793726251
Sinard;44.950962576799164; 5.662744769816229
Croutelle;46.543806522809696; 0.3022120050427847
Blois;47.58350051181809; 1.2983065304945538
Prévessin-Moëns;46.26983115433775; 6.079363148085469
Colomiers;43.59646833572066; 1.3097189060926304
Saulxures-sur-Moselotte;47.952782209744896; 6.8155953445102835
Draguignan;43.54015416200129; 6.444477222115366
Toulon;43.1321266503195; 5.8925840313778926
Bar-le-Duc;48.77041810647561; 5.180203642540007
Aoste;45.58370708737934; 5.610854019309674
Carnoules;43.29696424920635; 6.174351473377748
Millery;45.648632103031744; 4.771563210621019
Mions;45.67537414979502; 4.971754964203427
Paris;48.835842704721784; 2.3917081866286534
Publier;46.38831203792856; 6.510215845796039
Angoulême;45.63723362110564; 0.13053406259427092
Aire-sur-l'Adour;43.707113249276226; -0.26201787912298563
Angresse;43.65801254233392; -1.3738441876457543
Villefranque;43.42242161588649; -1.429265073609142
Parentis-en-Born;44.34856786545469; -1.0805295245551445
Roquefort;44.04473852733077; -0.322747963432188
Clermont-Ferrand;45.782191930987516; 3.1006155280339955
Saint-Nicolas-du-Pélem;48.31215234043697; -3.1345166397322703
Uzel;48.27572862443359; -2.8484151918625975
Aix-en-Provence;43.48534630809073; 5.355744473525239
Aubusson;45.95319970906357; 2.1909103577207483
Aix-en-Provence;43.51827247106029; 5.4271407597904275
Bellignat;46.23633875003579; 5.619329602918068
Bourg-en-Bresse;46.1999927468696; 5.238936120493012
Laruns;42.984394618448256; -0.42829794805593496
Lau-Balagnas;42.99764130071982; -0.10013894700285418
Gavarnie-Gèdre;42.82027687277274; 0.01194305752335033
Vic-en-Bigorre;43.380397621176236; 0.07657148157212203
Boult-sur-Suippe;49.36497245974911; 4.157360023241292
Compertrix;48.94131272677041; 4.34687518685074
Tarbes;43.22568490019688; 0.03994115099448822
Revel;43.46682158908255; 1.995315675367312
Valence;44.116532419178185; 0.8830392018824986
Tinténiac;48.32021169836553; -1.8262397021963936
Langogne;44.73765292856291; 3.8533800747987677
Vic-Fezensac;43.7544019089457; 0.31216456841046175
Saint-Nazaire;47.267700269811556; -2.2727828703774176
Saint-Denis;48.921724467748724; 2.340545705922432
Saint-Cyr-sur-Loire;47.401794252614074; 0.6780187613382871
Sorigny;47.262399629098816; 0.7277276589675893
Lille;50.62076632303746; 3.0652491697140776
Saint-André-de-Sangonis;43.660663306975; 3.5133716690208403
Blain;47.472636882132484; -1.7456286326065966
Bourgoin-Jallieu;45.5938944409687; 5.277179319225401
Berck;50.4021076479689; 1.6030124256373137
Paris;48.87230179325057; 2.344259419036763
Givet;50.13295534611892; 4.821311856166926
Ferrières-Haut-Clocher;49.03116131671781; 0.9698123713757584
Saint-Nazaire;47.290707719971145; -2.197734703312892
Minihy-Tréguier;48.76653436177816; -3.2493694704722977
Bretagne-d'Armagnac;43.872690998443275; 0.14028715946428805
La Capelle;49.974147753448655; 3.932247733238962
Cazalis;44.33218997526898; -0.35076531588971654
Nort-sur-Erdre;47.45481758922435; -1.5104981647965616
Sévérac;47.541677206522166; -2.0459858387767618
Cazedarnes;43.419608204406295; 3.0436246414952657
Châteauneuf-les-Martigues;43.39412568591528; 5.120068198362174
Lamastre;44.97725581483139; 4.563137900688486
Le Tréport;50.06006768053058; 1.3949618879323473
Avranches;48.67552960667616; -1.315508135211446
Saint-Maixent-l'École;46.41630051886016; -0.21033552354925736
Fontenay-le-Comte;46.45677834436113; -0.7786231567436104
Grues;46.37156441998683; -1.3195788350021231
Longeville-sur-Mer;46.43300285184326; -1.4878416294965715
Seigy;47.25482661887287; 1.3802649009895303
Montoire-sur-le-Loir;47.75755383920354; 0.882046855580452
Toulouse;43.58071307036031; 1.477041266142997
Portet-sur-Garonne;43.529371202731575; 1.3867697844155515
Saint-Privat-des-Vieux;44.13837580981513; 4.135184811185566
Réquista;44.03616398884367; 2.5202867015977355
Contes;43.78280936274039; 7.335061387240557
Calais;50.96311697192795; 1.8826642590281282
Marquise;50.80668327195212; 1.7210437445755424
Armbouts-Cappel;50.99993242987364; 2.3470354899289894
Nyons;44.35225395387753; 5.116257469851471
Privas;44.72431530853324; 4.602793270895337
Aurillac;44.91700222048994; 2.440211835836994
Isigny-sur-Mer;49.315423480754234; -1.1000307079857392
Lisieux;49.1417831869537; 0.2217186497924043
Dalstein;49.30689967411189; 6.399725765148738
Dardilly;45.80642804432055; 4.761551596250013
Bellac;46.10541177464782; 1.043555338966081
Narnhac;44.93497268779763; 2.753894691705144
Châteauneuf-sur-Isère;45.00591899857143; 4.978944855732535
Saint-Pierre-des-Corps;47.3908296405905; 0.7447564727002832
Roquebillière;44.021736650505034; 7.307309332902141
Salins-les-Bains;46.948511344395136; 5.861334935625624
Saumur;47.24376122275419; -0.07035835069703629
Mauges-sur-Loire;47.35867349422464; -1.0000422233036612
Loué;47.991759290881156; -0.13324041100947384
Vieux-Condé;50.45882357838396; 3.5772421683585747
Sainte-Croix-en-Plaine;48.0178911758501; 7.370653567436039
Le Havre;49.49279723572173; 0.12816950163712315
Paris;48.851233133207735; 2.3296769751568562
Quimperlé;47.883893918277465; -3.549821617478233
Beausite;48.97223746312217; 5.239612686587426
Mitry-Mory;48.974755827744644; 2.5712498823770926
Vauvillers;49.84631510184938; 2.6856775837725206
Les Belleville;45.32374861802004; 6.5343310297069515
Châteauneuf;45.54987421369349; 6.160991436746618
Cormeilles-en-Parisis;48.95066035211201; 2.2008842158098507
Boulogne-Billancourt;48.847463641825044; 2.2354760236792663
Rueil-Malmaison;48.89021609054743; 2.1677741913611763
Vauréal;49.02210168336686; 2.015410709160959
Dun-le-Palestel;46.30314517298335; 1.646883579542504
Josselin;47.95684320870301; -2.562662317445089
Lanton;44.73975759016701; -1.0249798035600806
Vicq-sur-Breuilh;45.63514894257232; 1.4208279120279164
Neuvic-Entier;45.732612338220186; 1.6710233229897529
Peymeinade;43.640122704296935; 6.889998561199606
Fougerolles-du-Plessis;48.462147121736756; -0.9685317906908008
Maîche;47.247617332364705; 6.785533444376658
Baume-les-Dames;47.34618952758663; 6.354930267789997
Aigues-Mortes;43.5657738548857; 4.197691476525172
Saint-Jean-de-Braye;47.916552840645714; 1.9427592331101942
Briare;47.63512372894623; 2.7619496401264922
Marseille;43.310404354755235; 5.38828026987117
Brech;47.68786781377372; -2.9997785103233983
Grand Bourgtheroulde;49.28145447233516; 0.882126310328721
Montalieu-Vercieu;45.807332218164056; 5.402608087140936
Wavrin;50.55240299840594; 2.936732176547164
Paisy-Cosdon;48.233782101444994; 3.722588403471817
Joux-la-Ville;47.640656270056084; 3.884196935068259
Auch;43.62134849450285; 0.588714579373005
Marzan;47.532035930520415; -2.3275775576424547
Amiens;49.912181951276146; 2.2952285310625973
Nogent-sur-Oise;49.26967428871574; 2.4858322570247937
Cestas;44.72142483117054; -0.7980331584221565
Nogent-sur-Seine;48.485809088324096; 3.5142116084938944
Polisot;48.0809307244568; 4.384077073188658
Romilly-sur-Seine;48.50676814802619; 3.746020777165093
Lourdes;43.10195995019913; -0.03242606849274649
Albi;43.92458446260336; 2.179338132528409
Sainte-Jamme-sur-Sarthe;48.14631451104212; 0.1667840807517337
Seuil;49.45376422310907; 4.436144699103309
Avallon;47.49606635930481; 3.91954963970535
Cosne-Cours-sur-Loire;47.41637888662812; 2.934117445174301
Fouesnant;47.72336719898766; -4.0043613229591
Hauteluce;45.76257469275764; 6.534241257994761
Villiers-le-Bâcle;48.729818776839075; 2.1437958486912674
Loupian;43.46505051028008; 3.6067325357244937
Loudun;47.003327727988996; 0.07564815724213049
Montmorillon;46.43322187153211; 0.8784514396279757
Thizy-les-Bourgs;46.03566311071011; 4.288646523668832
Chazelles-sur-Lyon;45.6352255861623; 4.374029318600586
Saint-Amandin;45.3526468115864; 2.6670686170925904
Espéraza;42.9353619473294; 2.200650559525219
Berriac;43.211468483691164; 2.389966600435858
Saintes-Maries-de-la-Mer;43.54897058969226; 4.399298694787053
Sorgues;44.012844590862095; 4.885192457432042
Marseille;43.24323280880949; 5.37952765292675
Les Pennes-Mirabeau;43.3750493334266; 5.354554819014709
Valençay;47.149721707207725; 1.5769882612674548
Bayon;48.47595437433916; 6.328940180538719
Issy-les-Moulineaux;48.82648093778696; 2.2682340530167746
Floirac;44.82118517111205; -0.5255660080906055
Saint-Médard-en-Jalles;44.89117617571683; -0.7429675181111818
Gourin;48.13212095555517; -3.6362146063821266
Bordeaux;44.882089638457536; -0.5451872764175544
Bazas;44.41362896652908; -0.21789943783875076
Malakoff;48.812817921944124; 2.2789961404012424
Courbépine;49.110431950147074; 0.5946487914723738
Le Torpt;49.3500081116006; 0.38344409451748
Istres;43.49374185403055; 4.967462568235734
Rousset;43.47098150768345; 5.615917309566607
Wattignies;50.59166330060452; 3.063000109238895
Villeurbanne;45.76414486279585; 4.882970310900596
Brest;48.42438056649378; -4.497691519901726
Le Mans;48.005573591368154; 0.23564799494019664
Arles;43.67589686179894; 4.602176567143584
Saint-Léger-Triey;47.32756284214707; 5.365674333442914
Grimaud;43.266581056208175; 6.553925800916082
Marcilly-sur-Tille;47.51333620243877; 5.135206094241613
Rouze;42.75145709856025; 2.0854362607913193
Meyzieu;45.761796296917; 5.026267840104278
Mouzeuil-Saint-Martin;46.46648492317374; -0.9766705802067673
Palluau;46.80687437609555; -1.6042104718108452
La Ferté-sous-Jouarre;48.9512088267941; 3.1376008100176285
Montreuil-Bellay;47.11485454009487; -0.12139830733074787
Carcassonne;43.20373452884688; 2.3184626923107583
Villefranche-sur-Saône;45.98702872175876; 4.730113988315686
Belley;45.769034423029055; 5.693160689046588
Amanvillers;49.1698211590879; 6.0512699792971825
Archingeay;45.91765348106936; -0.7043783652768422
Montreuil;48.87078525089853; 2.433843828132352
Noisy-le-Grand;48.83331513599263; 2.5819905128939604
Neuville-sur-Brenne;47.60886590702696; 0.9099429216923133
Douvaine;46.295723280504625; 6.305887393728215
Mouans-Sartoux;43.64074692064457; 6.986525953286808
Périers;49.19437056551721; -1.400644458298878
La Rochelle;46.1483122525922; -1.1508035729783794
Paris;48.88356509927122; 2.321891439589862
Saint-Agathon;48.55568109791721; -3.0802068158678133
Seraumont;48.43969925200931; 5.584599854589502
Salernes;43.561412253007596; 6.250035061450602
Coarraze;43.18285140397816; -0.24274145806255965
Vernouillet;48.709997467543964; 1.3830877416873333
Étupes;47.506424625214834; 6.846988776735282
Frévent;50.271741473100946; 2.2910323181982744
Jeuxey;48.188063415033; 6.4887334337268765
Les Ancizes-Comps;45.92110388631744; 2.8355869236604923
Trèves;44.09194325103818; 3.365068495180699
Villefranche-de-Rouergue;44.351502450158776; 2.0162136241979183
Montfort-l'Amaury;48.782392715406374; 1.8102484785313517
Le Pecq;48.90048524104869; 2.105625445208021
Dol-de-Bretagne;48.55393050725271; -1.7502413403012054
Riom;45.88429802695811; 3.1224477774077393
Maubeuge;50.264637337779; 3.9314663623685377
Landivisiau;48.51349828931051; -4.051493262952187
Saint-Pierre-d'Oléron;45.9413945877824; -1.326131953279884
Saint-Joseph;45.5378094672419; 4.635503214202344
Salaise-sur-Sanne;45.351185623891794; 4.8031696338715255
Tignieu-Jameyzieu;45.748658662890996; 5.184558166853916
Paris;48.84900019133192; 2.300197639221098
Rantigny;49.33679498181612; 2.435504150089676
Nibas;50.086053263166946; 1.580543714058684
Trescléoux;44.344605478396765; 5.761643523214996
Latour-de-Carol;42.45894416101472; 1.9014660198236932
Perpignan;42.695691596537735; 2.8573228757263935
Saint-Laurent-de-la-Salanque;42.78800979533849; 3.0031740626693266
Annemasse;46.183890574239285; 6.233010273365557
Saint-André-de-Cubzac;45.000747553896204; -0.46205916797316365
Saint-Xandre;46.21332390743069; -1.1270407578514068
Tréglonou;48.54385505768477; -4.545752214199498
La Chapelle-Saint-Ursin;47.050740732852184; 2.3068710492618467
Saint-Satur;47.3382999913831; 2.836297154207429
Saint-Léon-sur-l'Isle;45.12168160354643; 0.4838303024796887
Saint-Contest;49.217785401182425; -0.4076471179782908
Vénéjan;44.199997806425024; 4.647797908326522
Belleville-en-Beaujolais;46.120276392349815; 4.729817548285849
Saint-Bernard;45.95110621653156; 4.748830105239526
Blyes;45.84012448409951; 5.265393739001782
Saint-Sixte;45.75659586982458; 3.968383907246968
Bannalec;47.92412801076285; -3.675036255230787
Bénodet;47.886825297955184; -4.054926459204333
Châteauneuf-du-Faou;48.18183806277242; -3.8461067304508085
Brive-la-Gaillarde;45.148511525965766; 1.4863026205461036
Saint-Victoret;43.412269021194156; 5.252981125435366
Vierzon;47.22871836032424; 2.0322675918264173
Saint-Jean-d'Angély;45.928885880014924; -0.5276445177735258
Henrichemont;47.30367629036003; 2.5457619921768924
Anneyron;45.26901677608343; 4.858336732760413
Sainte-Livrade;43.6427723366998; 1.0993363624783299
Moustey;44.36861561400977; -0.7739153852432347
Paris;48.88788221739182; 2.376555843974103
Paris;48.871442864514954; 2.371519118826384
Saint-Paul-lès-Dax;43.73843029733047; -1.0705433639221562
Certines;46.15100048596295; 5.25398815208714
Cressin-Rochefort;45.78552869420326; 5.7679736141908595
Jayat;46.36023322618583; 5.105309169778814
